{"type": "FeatureCollection", "features": [{"type": "Feature", "properties": {"sensor_index": 266614, "name": "Pit 8 PRM2(new2025)", "province": "SK", "pm25": 0.0, "pm25_a": 0.0, "pm25_b": 0.0, "last_seen": 1773850891, "location_type": 0}, "geometry": {"type": "Point", "coordinates": [-105.29647, 49.235546]}}, {"type": "Feature", "properties": {"sensor_index": 272918, "name": "Shaunavon Public School", "province": "SK", "pm25": 0.0, "pm25_a": 0.0, "pm25_b": 0.0, "last_seen": 1773850869, "location_type": 0}, "geometry": {"type": "Point", "coordinates": [-108.412155, 49.64833]}}, {"type": "Feature", "properties": {"sensor_index": 13089, "name": "East Regina", "province": "SK", "pm25": 3.5, "pm25_a": 0.0, "pm25_b": 3.5, "last_seen": 1773850793, "location_type": 0}, "geometry": {"type": "Point", "coordinates": [-104.40226, 50.44632]}}, {"type": "Feature", "properties": {"sensor_index": 278055, "name": "Aberdeen", "province": "SK", "pm25": 14.6, "pm25_a": 13.9, "pm25_b": 15.2, "last_seen": 1773850868, "location_type": 0}, "geometry": {"type": "Point", "coordinates": [-106.28809, 52.32907]}}, {"type": "Feature", "properties": {"sensor_index": 279087, "name": "Avonlea", "province": "SK", "pm25": 0.0, "pm25_a": 0.0, "pm25_b": 0.0, "last_seen": 1773850848, "location_type": 0}, "geometry": {"type": "Point", "coordinates": [-105.05532, 50.01725]}}, {"type": "Feature", "properties": {"sensor_index": 280276, "name": "Olive Grove, Regina SK", "province": "SK", "pm25": 0.0, "pm25_a": 0.0, "pm25_b": 0.0, "last_seen": 1773850829, "location_type": 0}, "geometry": {"type": "Point", "coordinates": [-104.53042, 50.425274]}}, {"type": "Feature", "properties": {"sensor_index": 280344, "name": "Holy Trinity Catholic School Division Board Office", "province": "SK", "pm25": 1.3, "pm25_a": 1.6, "pm25_b": 1.0, "last_seen": 1773850872, "location_type": 0}, "geometry": {"type": "Point", "coordinates": [-105.49968, 50.3942]}}, {"type": "Feature", "properties": {"sensor_index": 280768, "name": "Columbus Baseball Park", "province": "SK", "pm25": 19.4, "pm25_a": 2.5, "pm25_b": 36.3, "last_seen": 1773850803, "location_type": 0}, "geometry": {"type": "Point", "coordinates": [-104.641235, 50.43188]}}, {"type": "Feature", "properties": {"sensor_index": 284004, "name": "#1 Admin Exterior", "province": "SK", "pm25": 2.8, "pm25_a": 3.0, "pm25_b": 2.7, "last_seen": 1773850893, "location_type": 0}, "geometry": {"type": "Point", "coordinates": [-102.81751, 54.64922]}}, {"type": "Feature", "properties": {"sensor_index": 284246, "name": "#4 Exploration", "province": "SK", "pm25": 2.4, "pm25_a": 2.3, "pm25_b": 2.5, "last_seen": 1773850868, "location_type": 0}, "geometry": {"type": "Point", "coordinates": [-102.830734, 54.640182]}}, {"type": "Feature", "properties": {"sensor_index": 284296, "name": "#2_Comms Tower Sea Can", "province": "SK", "pm25": 5.4, "pm25_a": 4.4, "pm25_b": 6.4, "last_seen": 1773850883, "location_type": 0}, "geometry": {"type": "Point", "coordinates": [-102.815796, 54.62586]}}, {"type": "Feature", "properties": {"sensor_index": 287588, "name": "AQSU-Parks Canada Ops", "province": "SK", "pm25": 0.5, "pm25_a": 0.8, "pm25_b": 0.2, "last_seen": 1773850793, "location_type": 0}, "geometry": {"type": "Point", "coordinates": [-107.7334, 49.24228]}}, {"type": "Feature", "properties": {"sensor_index": 288558, "name": "Whitecap Dakota Nation", "province": "SK", "pm25": 9.1, "pm25_a": 9.0, "pm25_b": 9.2, "last_seen": 1773850854, "location_type": 0}, "geometry": {"type": "Point", "coordinates": [-106.71199, 51.876564]}}, {"type": "Feature", "properties": {"sensor_index": 291698, "name": "Muskoday First Nation", "province": "SK", "pm25": 5.4, "pm25_a": 5.4, "pm25_b": 5.5, "last_seen": 1773850809, "location_type": 0}, "geometry": {"type": "Point", "coordinates": [-105.49045, 53.089066]}}, {"type": "Feature", "properties": {"sensor_index": 31411, "name": "SPSA Radio Technical Services", "province": "SK", "pm25": 7.0, "pm25_a": 6.1, "pm25_b": 7.9, "last_seen": 1773850794, "location_type": 0}, "geometry": {"type": "Point", "coordinates": [-105.7409, 53.19702]}}, {"type": "Feature", "properties": {"sensor_index": 35205, "name": "Indian Head", "province": "SK", "pm25": 3.8, "pm25_a": 3.6, "pm25_b": 4.1, "last_seen": 1773850683, "location_type": 0}, "geometry": {"type": "Point", "coordinates": [-103.67302, 50.530582]}}, {"type": "Feature", "properties": {"sensor_index": 37889, "name": "AQSU-3317", "province": "SK", "pm25": 0.3, "pm25_a": 0.0, "pm25_b": 0.6, "last_seen": 1773850868, "location_type": 0}, "geometry": {"type": "Point", "coordinates": [-107.0625, 51.49611]}}, {"type": "Feature", "properties": {"sensor_index": 39067, "name": "Flying Dust First Nation - MLTC", "province": "SK", "pm25": 9.2, "pm25_a": 8.3, "pm25_b": 10.2, "last_seen": 1773850793, "location_type": 0}, "geometry": {"type": "Point", "coordinates": [-108.40431, 54.135418]}}, {"type": "Feature", "properties": {"sensor_index": 80161, "name": "Waterhen Lake First Nation (MLTC Sensor)", "province": "SK", "pm25": 0.0, "pm25_a": 13.4, "pm25_b": 0.0, "last_seen": 1773850861, "location_type": 0}, "geometry": {"type": "Point", "coordinates": [-108.41052, 54.51842]}}, {"type": "Feature", "properties": {"sensor_index": 80173, "name": "Sucker River", "province": "SK", "pm25": 3.0, "pm25_a": 2.6, "pm25_b": 3.4, "last_seen": 1773850844, "location_type": 0}, "geometry": {"type": "Point", "coordinates": [-105.16657, 55.282566]}}, {"type": "Feature", "properties": {"sensor_index": 83949, "name": "Martensville", "province": "SK", "pm25": 11.9, "pm25_a": 11.8, "pm25_b": 12.0, "last_seen": 1773850818, "location_type": 0}, "geometry": {"type": "Point", "coordinates": [-106.655334, 52.28792]}}, {"type": "Feature", "properties": {"sensor_index": 83977, "name": "Saskatoon East", "province": "SK", "pm25": 7.0, "pm25_a": 6.6, "pm25_b": 7.5, "last_seen": 1773850889, "location_type": 0}, "geometry": {"type": "Point", "coordinates": [-106.615204, 52.104385]}}, {"type": "Feature", "properties": {"sensor_index": 90265, "name": "Buffalo River Dene Nation - MLTC", "province": "SK", "pm25": 0.0, "pm25_a": 0.0, "pm25_b": 0.0, "last_seen": 1773850817, "location_type": 0}, "geometry": {"type": "Point", "coordinates": [-108.92564, 55.92818]}}, {"type": "Feature", "properties": {"sensor_index": 95365, "name": "Grandmothers Bay", "province": "SK", "pm25": 1.5, "pm25_a": 1.8, "pm25_b": 1.2, "last_seen": 1773850781, "location_type": 0}, "geometry": {"type": "Point", "coordinates": [-104.71085, 55.625896]}}, {"type": "Feature", "properties": {"sensor_index": 95507, "name": "La Ronge", "province": "SK", "pm25": 2.5, "pm25_a": 3.2, "pm25_b": 1.8, "last_seen": 1773850894, "location_type": 0}, "geometry": {"type": "Point", "coordinates": [-105.29466, 55.099724]}}, {"type": "Feature", "properties": {"sensor_index": 106306, "name": "Hall Lake", "province": "SK", "pm25": 3.3, "pm25_a": 4.0, "pm25_b": 2.6, "last_seen": 1773850801, "location_type": 0}, "geometry": {"type": "Point", "coordinates": [-105.91855, 55.11413]}}, {"type": "Feature", "properties": {"sensor_index": 132003, "name": "AQSU-Wascana", "province": "SK", "pm25": 0.1, "pm25_a": 3225.2, "pm25_b": 0.1, "last_seen": 1773270992, "location_type": 0}, "geometry": {"type": "Point", "coordinates": [-104.52927, 50.41701]}}, {"type": "Feature", "properties": {"sensor_index": 132901, "name": "Weyburn Arenas", "province": "SK", "pm25": 3327.9, "pm25_a": 3330.5, "pm25_b": 3325.3, "last_seen": 1773850858, "location_type": 0}, "geometry": {"type": "Point", "coordinates": [-103.86062, 49.6659]}}, {"type": "Feature", "properties": {"sensor_index": 134938, "name": "NWR Weather", "province": "SK", "pm25": 0.0, "pm25_a": NaN, "pm25_b": 0.0, "last_seen": 1773850782, "location_type": 0}, "geometry": {"type": "Point", "coordinates": [-104.660446, 50.501785]}}, {"type": "Feature", "properties": {"sensor_index": 136784, "name": "Johnson Shoyama Graduate School of Public Policy \u2014 University of Regina", "province": "SK", "pm25": 0.0, "pm25_a": 0.0, "pm25_b": 0.0, "last_seen": 1773850884, "location_type": 0}, "geometry": {"type": "Point", "coordinates": [-104.611, 50.440098]}}, {"type": "Feature", "properties": {"sensor_index": 137258, "name": "AQSU-E4DB", "province": "SK", "pm25": 10.9, "pm25_a": 10.2, "pm25_b": 11.6, "last_seen": 1773850893, "location_type": 0}, "geometry": {"type": "Point", "coordinates": [-103.17209, 49.669876]}}, {"type": "Feature", "properties": {"sensor_index": 137774, "name": "Poplar", "province": "SK", "pm25": 2.7, "pm25_a": 2.3, "pm25_b": 3.1, "last_seen": 1773850860, "location_type": 0}, "geometry": {"type": "Point", "coordinates": [-106.671135, 52.118786]}}, {"type": "Feature", "properties": {"sensor_index": 143688, "name": "St. Joseph High School", "province": "SK", "pm25": 22.8, "pm25_a": 20.6, "pm25_b": 25.0, "last_seen": 1773850836, "location_type": 0}, "geometry": {"type": "Point", "coordinates": [-106.583755, 52.14765]}}, {"type": "Feature", "properties": {"sensor_index": 145074, "name": "Dalmeny Downtown", "province": "SK", "pm25": 10.0, "pm25_a": 10.2, "pm25_b": 9.9, "last_seen": 1773850800, "location_type": 0}, "geometry": {"type": "Point", "coordinates": [-106.773705, 52.340893]}}, {"type": "Feature", "properties": {"sensor_index": 151158, "name": "Goodwater Field Office", "province": "SK", "pm25": 7.9, "pm25_a": 7.6, "pm25_b": 8.2, "last_seen": 1773850883, "location_type": 0}, "geometry": {"type": "Point", "coordinates": [-103.70854, 49.469376]}}, {"type": "Feature", "properties": {"sensor_index": 151170, "name": "CARLYE sk", "province": "SK", "pm25": 0.0, "pm25_a": 12.0, "pm25_b": 0.0, "last_seen": 1773850873, "location_type": 0}, "geometry": {"type": "Point", "coordinates": [-102.27627, 49.638657]}}, {"type": "Feature", "properties": {"sensor_index": 151386, "name": "Weyburn", "province": "SK", "pm25": 0.0, "pm25_a": 37.4, "pm25_b": 0.0, "last_seen": 1773850845, "location_type": 0}, "geometry": {"type": "Point", "coordinates": [-103.85062, 49.658752]}}, {"type": "Feature", "properties": {"sensor_index": 152072, "name": "Leisure Centre", "province": "SK", "pm25": 0.4, "pm25_a": 0.4, "pm25_b": 14.2, "last_seen": 1773850841, "location_type": 0}, "geometry": {"type": "Point", "coordinates": [-103.84738, 49.669205]}}, {"type": "Feature", "properties": {"sensor_index": 152154, "name": "Mosaic Stadium", "province": "SK", "pm25": 3.5, "pm25_a": 2.2, "pm25_b": 4.9, "last_seen": 1773850806, "location_type": 0}, "geometry": {"type": "Point", "coordinates": [-104.63257, 50.451645]}}, {"type": "Feature", "properties": {"sensor_index": 157597, "name": "Rook I Camp", "province": "SK", "pm25": 0.8, "pm25_a": 1.1, "pm25_b": 0.5, "last_seen": 1773850900, "location_type": 0}, "geometry": {"type": "Point", "coordinates": [-109.27013, 57.652084]}}, {"type": "Feature", "properties": {"sensor_index": 166031, "name": "Saskatoon Eastview", "province": "SK", "pm25": 10.3, "pm25_a": 10.8, "pm25_b": 9.8, "last_seen": 1773850784, "location_type": 0}, "geometry": {"type": "Point", "coordinates": [-106.61149, 52.090675]}}, {"type": "Feature", "properties": {"sensor_index": 175687, "name": "AQSU-41A9", "province": "SK", "pm25": 5.7, "pm25_a": 4.8, "pm25_b": 6.7, "last_seen": 1773850895, "location_type": 0}, "geometry": {"type": "Point", "coordinates": [-103.98449, 52.739178]}}, {"type": "Feature", "properties": {"sensor_index": 192963, "name": "Cypress Hills Prov Park SPSA", "province": "SK", "pm25": 0.0, "pm25_a": 0.0, "pm25_b": 0.0, "last_seen": 1773850880, "location_type": 0}, "geometry": {"type": "Point", "coordinates": [-109.53532, 49.663673]}}, {"type": "Feature", "properties": {"sensor_index": 193091, "name": "Rams 1", "province": "SK", "pm25": 0.9, "pm25_a": 0.0, "pm25_b": 1.7, "last_seen": 1773850862, "location_type": 0}, "geometry": {"type": "Point", "coordinates": [-104.586845, 50.414425]}}, {"type": "Feature", "properties": {"sensor_index": 193110, "name": "Mosaic Stadium Upper Level", "province": "SK", "pm25": 1.7, "pm25_a": 1.8, "pm25_b": 1.7, "last_seen": 1773850833, "location_type": 0}, "geometry": {"type": "Point", "coordinates": [-104.63419, 50.44997]}}, {"type": "Feature", "properties": {"sensor_index": 195477, "name": "Colonsay", "province": "SK", "pm25": 7.7, "pm25_a": 6.2, "pm25_b": 9.2, "last_seen": 1773850808, "location_type": 0}, "geometry": {"type": "Point", "coordinates": [-105.87072, 51.976357]}}, {"type": "Feature", "properties": {"sensor_index": 195485, "name": "Blaine Lake", "province": "SK", "pm25": 10.1, "pm25_a": 9.9, "pm25_b": 10.4, "last_seen": 1773850883, "location_type": 0}, "geometry": {"type": "Point", "coordinates": [-106.87386, 52.831364]}}, {"type": "Feature", "properties": {"sensor_index": 195505, "name": "Delisle", "province": "SK", "pm25": 3.9, "pm25_a": 2.8, "pm25_b": 5.1, "last_seen": 1773850801, "location_type": 0}, "geometry": {"type": "Point", "coordinates": [-107.13111, 51.92633]}}, {"type": "Feature", "properties": {"sensor_index": 195511, "name": "Hanley", "province": "SK", "pm25": 2.0, "pm25_a": 2.4, "pm25_b": 1.6, "last_seen": 1773850825, "location_type": 0}, "geometry": {"type": "Point", "coordinates": [-106.44209, 51.633156]}}, {"type": "Feature", "properties": {"sensor_index": 195555, "name": "Rosthern", "province": "SK", "pm25": 7.1, "pm25_a": 7.5, "pm25_b": 6.7, "last_seen": 1773850882, "location_type": 0}, "geometry": {"type": "Point", "coordinates": [-106.34828, 52.666874]}}, {"type": "Feature", "properties": {"sensor_index": 195659, "name": "Foley Base PRM1", "province": "SK", "pm25": 0.0, "pm25_a": 0.0, "pm25_b": 0.0, "last_seen": 1773850804, "location_type": 0}, "geometry": {"type": "Point", "coordinates": [-105.47477, 49.23043]}}, {"type": "Feature", "properties": {"sensor_index": 196017, "name": "Wildwood", "province": "SK", "pm25": 8.1, "pm25_a": 8.2, "pm25_b": 8.0, "last_seen": 1773850883, "location_type": 0}, "geometry": {"type": "Point", "coordinates": [-106.593544, 52.107727]}}, {"type": "Feature", "properties": {"sensor_index": 196429, "name": "All Saints Catholic School", "province": "SK", "pm25": 0.0, "pm25_a": 0.0, "pm25_b": 0.0, "last_seen": 1773850796, "location_type": 0}, "geometry": {"type": "Point", "coordinates": [-107.78, 50.3135]}}, {"type": "Feature", "properties": {"sensor_index": 196479, "name": "Christ The King School", "province": "SK", "pm25": 3333.0, "pm25_a": 3333.7, "pm25_b": 3332.4, "last_seen": 1773850879, "location_type": 0}, "geometry": {"type": "Point", "coordinates": [-108.40426, 49.65119]}}, {"type": "Feature", "properties": {"sensor_index": 209603, "name": "FHQTC LRES Urban Office", "province": "SK", "pm25": 2.8, "pm25_a": 3.2, "pm25_b": 2.5, "last_seen": 1773850810, "location_type": 0}, "geometry": {"type": "Point", "coordinates": [-104.58396, 50.471775]}}, {"type": "Feature", "properties": {"sensor_index": 209845, "name": "AQSU-Muskeg Lake", "province": "SK", "pm25": 8.0, "pm25_a": 7.7, "pm25_b": 8.3, "last_seen": 1773850851, "location_type": 0}, "geometry": {"type": "Point", "coordinates": [-106.87685, 53.003407]}}, {"type": "Feature", "properties": {"sensor_index": 211611, "name": "FHQTC LRES Treaty Four Territory Air Quality Monitor", "province": "SK", "pm25": 5.2, "pm25_a": 5.0, "pm25_b": 5.4, "last_seen": 1773850679, "location_type": 0}, "geometry": {"type": "Point", "coordinates": [-103.78721, 50.756958]}}, {"type": "Feature", "properties": {"sensor_index": 214441, "name": "AQSU-Mistawasis", "province": "SK", "pm25": 14.8, "pm25_a": 13.0, "pm25_b": 16.6, "last_seen": 1773273649, "location_type": 0}, "geometry": {"type": "Point", "coordinates": [-106.80666, 53.174923]}}, {"type": "Feature", "properties": {"sensor_index": 218169, "name": "Mosaic Stadium Sideline (2)", "province": "SK", "pm25": 3.3, "pm25_a": 3.0, "pm25_b": 3.6, "last_seen": 1773850880, "location_type": 0}, "geometry": {"type": "Point", "coordinates": [-104.63352, 50.45109]}}, {"type": "Feature", "properties": {"sensor_index": 220665, "name": "SAS / Saskatoon Kinsmen Henk Ruys Soccer Centre", "province": "SK", "pm25": 5.9, "pm25_a": 6.1, "pm25_b": 5.7, "last_seen": 1773850809, "location_type": 0}, "geometry": {"type": "Point", "coordinates": [-106.631836, 52.1678]}}, {"type": "Feature", "properties": {"sensor_index": 223245, "name": "All Nations Healing Hospital/FHQTC Health Services", "province": "SK", "pm25": 0.6, "pm25_a": 6.2, "pm25_b": 0.6, "last_seen": 1773850811, "location_type": 0}, "geometry": {"type": "Point", "coordinates": [-103.78715, 50.761063]}}, {"type": "Feature", "properties": {"sensor_index": 224705, "name": "St. Henry's Sr School", "province": "SK", "pm25": 1.3, "pm25_a": 1.2, "pm25_b": 1.3, "last_seen": 1773850843, "location_type": 0}, "geometry": {"type": "Point", "coordinates": [-102.79673, 50.93659]}}, {"type": "Feature", "properties": {"sensor_index": 225117, "name": "Century Field YRHS", "province": "SK", "pm25": 8.5, "pm25_a": 8.5, "pm25_b": 3921.9, "last_seen": 1773850830, "location_type": 0}, "geometry": {"type": "Point", "coordinates": [-102.478065, 51.215965]}}, {"type": "Feature", "properties": {"sensor_index": 226573, "name": "Mankota Public School", "province": "SK", "pm25": 0.0, "pm25_a": 0.0, "pm25_b": 0.0, "last_seen": 1773850876, "location_type": 0}, "geometry": {"type": "Point", "coordinates": [-107.0674, 49.41989]}}, {"type": "Feature", "properties": {"sensor_index": 226635, "name": "Central Butte School", "province": "SK", "pm25": 0.4, "pm25_a": 0.4, "pm25_b": 0.4, "last_seen": 1773850794, "location_type": 0}, "geometry": {"type": "Point", "coordinates": [-106.504524, 50.796543]}}, {"type": "Feature", "properties": {"sensor_index": 226639, "name": "Assiniboia Composite High School", "province": "SK", "pm25": 0.0, "pm25_a": 0.0, "pm25_b": 0.0, "last_seen": 1773850782, "location_type": 0}, "geometry": {"type": "Point", "coordinates": [-105.99798, 49.62498]}}, {"type": "Feature", "properties": {"sensor_index": 227149, "name": "\u00c9cole Gravelbourg School", "province": "SK", "pm25": 0.0, "pm25_a": 0.0, "pm25_b": 0.0, "last_seen": 1773850827, "location_type": 0}, "geometry": {"type": "Point", "coordinates": [-106.56045, 49.872833]}}, {"type": "Feature", "properties": {"sensor_index": 227165, "name": "Craik School", "province": "SK", "pm25": 2.5, "pm25_a": 2.9, "pm25_b": 2.2, "last_seen": 1773850875, "location_type": 0}, "geometry": {"type": "Point", "coordinates": [-105.82357, 51.044815]}}, {"type": "Feature", "properties": {"sensor_index": 227173, "name": "Prairie South School Division Office", "province": "SK", "pm25": 0.1, "pm25_a": 0.1, "pm25_b": 0.1, "last_seen": 1773850798, "location_type": 0}, "geometry": {"type": "Point", "coordinates": [-105.55701, 50.40043]}}, {"type": "Feature", "properties": {"sensor_index": 227183, "name": "Rouleau School", "province": "SK", "pm25": 0.0, "pm25_a": 0.0, "pm25_b": 0.0, "last_seen": 1773850804, "location_type": 0}, "geometry": {"type": "Point", "coordinates": [-104.90163, 50.19128]}}, {"type": "Feature", "properties": {"sensor_index": 229353, "name": "Borden", "province": "SK", "pm25": 13.2, "pm25_a": 20.2, "pm25_b": 6.2, "last_seen": 1773850812, "location_type": 0}, "geometry": {"type": "Point", "coordinates": [-107.23633, 52.403618]}}, {"type": "Feature", "properties": {"sensor_index": 229921, "name": "Cudworth", "province": "SK", "pm25": 7.5, "pm25_a": 6.0, "pm25_b": 9.1, "last_seen": 1773850785, "location_type": 0}, "geometry": {"type": "Point", "coordinates": [-105.73341, 52.48632]}}, {"type": "Feature", "properties": {"sensor_index": 231289, "name": "AQSU-One Arrow", "province": "SK", "pm25": 8.5, "pm25_a": 7.5, "pm25_b": 9.5, "last_seen": 1773850066, "location_type": 0}, "geometry": {"type": "Point", "coordinates": [-106.029366, 52.740547]}}, {"type": "Feature", "properties": {"sensor_index": 251803, "name": "Saskatchewan Polytechnic Moose Jaw Campus", "province": "SK", "pm25": 0.9, "pm25_a": 0.8, "pm25_b": 1.0, "last_seen": 1773850885, "location_type": 0}, "geometry": {"type": "Point", "coordinates": [-105.551186, 50.40406]}}]}