station,name,lat,lon
3,Prince Albert,53.2033,-105.7531
4,Swift Current,50.288,-107.7972
18,Estevan,49.1405,-102.989
2,Saskatoon,52.1579,-106.67
6,Buffalo Narrows,55.8412,-108.417
1,Regina,50.4452,-104.6189
