station,datetime,AQHI_0,AQHI_1,AQHI_2,AQHI_trend,PM25_0,PM25_1,PM25_2,NO2_0,NO2_1,NO2_2,O3_0,O3_1,O3_2,WS,WD,TEMP,RH,lat,lon
Buffalo Narrows,2026-04-26 00:00:00+00:00,2,2,2,0,0.31,0.31,0.31,0.17,0.17,0.17,32.06,32.06,32.06,20.23,346.6,-3.08,77.8,55.8347917730994,-108.40387034522
Estevan,2026-04-26 00:00:00+00:00,2,2,2,0,2.36,2.36,2.36,1.61,1.61,1.61,34.51,34.51,34.51,21.74,252.38,-0.48,45.74,49.1323647672702,-102.985002018981
Prince Albert,2026-04-26 00:00:00+00:00,2,2,2,0,1.0,1.0,1.0,2.04,2.04,2.04,35.61,35.61,35.61,6.39,297.6,0.35,69.02,53.2019378757967,-105.751586774025
Regina,2026-04-26 00:00:00+00:00,2,2,2,0,2.39,2.39,2.39,2.03,2.03,2.03,30.25,30.25,30.25,15.96,289.15,-1.77,59.31,50.4502077461615,-104.617125744561
Saskatoon,2026-04-26 00:00:00+00:00,2,2,2,0,0.71,0.71,0.71,1.57,1.57,1.57,34.46,34.46,34.46,12.89,302.76,-1.43,65.28,52.1361376913645,-106.662942708646
Swift Current,2026-04-26 00:00:00+00:00,2,2,2,0,1.92,1.92,1.92,3.02,3.02,3.02,38.81,38.81,38.81,20.59,291.69,-4.01,74.73,50.2858504122844,-107.816680514048
