station,datetime,AQHI_0,AQHI_1,AQHI_2,AQHI_trend,PM25_0,PM25_1,PM25_2,NO2_0,NO2_1,NO2_2,O3_0,O3_1,O3_2,WS,WD,TEMP,RH,lat,lon
Buffalo Narrows,2026-04-25 07:00:00+00:00,2,2,2,0,2.14,2.14,2.14,0.07,0.07,0.07,34.28,34.28,34.28,19.55,351.09,-6.64,79.52,55.8347917730994,-108.40387034522
Estevan,2026-04-25 07:00:00+00:00,2,2,2,0,2.24,2.24,2.24,1.86,1.86,1.86,33.05,33.05,33.05,14.63,233.94,-5.56,70.16,49.1323647672702,-102.985002018981
Prince Albert,2026-04-25 07:00:00+00:00,2,2,2,0,0.82,0.82,0.82,1.01,1.01,1.01,37.32,37.32,37.32,11.87,31.01,-3.08,77.52,53.2019378757967,-105.751586774025
Regina,2026-04-25 07:00:00+00:00,2,2,2,0,1.96,1.96,1.96,3.8,3.8,3.8,30.85,30.85,30.85,12.91,271.34,-6.65,73.28,50.4502077461615,-104.617125744561
Saskatoon,2026-04-25 07:00:00+00:00,2,2,2,0,1.15,1.15,1.15,4.34,4.34,4.34,31.68,31.68,31.68,14.29,305.82,-5.64,82.7,52.1361376913645,-106.662942708646
Swift Current,2026-04-25 07:00:00+00:00,2,2,2,0,1.7,1.7,1.7,1.86,1.86,1.86,38.15,38.15,38.15,25.38,287.67,-7.16,95.22,50.2858504122844,-107.816680514048
