station,datetime,AQHI_0,AQHI_1,AQHI_2,AQHI_trend,PM25_0,PM25_1,PM25_2,NO2_0,NO2_1,NO2_2,O3_0,O3_1,O3_2,WS,WD,TEMP,RH,lat,lon
Buffalo Narrows,2026-04-29 06:00:00+00:00,2,2,2,0,2.64,2.64,2.64,1.14,1.14,1.14,33.01,33.01,33.01,1.1,147.76,-1.35,63.67,55.8347917730994,-108.40387034522
Estevan,2026-04-29 06:00:00+00:00,2,2,2,0,4.65,4.65,4.65,4.62,4.62,4.62,24.78,24.78,24.78,8.87,34.56,0.32,52.43,49.1323647672702,-102.985002018981
Prince Albert,2026-04-29 06:00:00+00:00,3,3,3,0,4.06,4.06,4.06,3.36,3.36,3.36,39.64,39.64,39.64,6.7,260.33,3.66,51.31,53.2019378757967,-105.751586774025
Regina,2026-04-29 06:00:00+00:00,4,4,4,0,9.74,9.74,9.74,41.65,41.65,41.65,8.97,8.97,8.97,9.46,87.24,1.22,55.18,50.4502077461615,-104.617125744561
Saskatoon,2026-04-29 06:00:00+00:00,3,3,3,0,5.99,5.99,5.99,13.88,13.88,13.88,24.7,24.7,24.7,5.36,202.74,2.71,50.13,52.1361376913645,-106.662942708646
Swift Current,2026-04-29 06:00:00+00:00,2,2,2,0,3.86,3.86,3.86,7.73,7.73,7.73,31.12,31.12,31.12,7.3,91.75,1.4,62.57,50.2858504122844,-107.816680514048
