station,datetime,AQHI_0,AQHI_1,AQHI_2,AQHI_trend,PM25_0,PM25_1,PM25_2,NO2_0,NO2_1,NO2_2,O3_0,O3_1,O3_2,WS,WD,TEMP,RH,lat,lon
Buffalo Narrows,2026-05-04 04:00:00+00:00,2,2,2,0,0.65,0.65,0.65,0.05,0.05,0.05,35.0,35.0,35.0,16.88,343.84,1.44,63.29,55.8347917730994,-108.40387034522
Estevan,2026-05-04 04:00:00+00:00,3,3,3,0,3.55,3.55,3.55,1.38,1.38,1.38,45.61,45.61,45.61,16.79,308.96,13.67,31.17,49.1323647672702,-102.985002018981
Prince Albert,2026-05-04 04:00:00+00:00,2,2,2,0,1.46,1.46,1.46,1.19,1.19,1.19,42.47,42.47,42.47,9.94,331.9,4.72,59.15,53.2019378757967,-105.751586774025
Regina,2026-05-04 04:00:00+00:00,2,2,2,0,4.41,4.41,4.41,1.61,1.61,1.61,38.67,38.67,38.67,23.23,346.32,9.7,39.0,50.4502077461615,-104.617125744561
Saskatoon,2026-05-04 04:00:00+00:00,2,2,2,0,1.69,1.69,1.69,1.65,1.65,1.65,41.04,41.04,41.04,21.07,350.72,7.59,49.51,52.1361376913645,-106.662942708646
Swift Current,2026-05-04 04:00:00+00:00,3,3,3,0,2.86,2.86,2.86,2.3,2.3,2.3,46.71,46.71,46.71,14.92,322.05,11.56,36.1,50.2858504122844,-107.816680514048
