station,datetime,AQHI_0,AQHI_1,AQHI_2,AQHI_trend,PM25_0,PM25_1,PM25_2,NO2_0,NO2_1,NO2_2,O3_0,O3_1,O3_2,WS,WD,TEMP,RH,lat,lon
Buffalo Narrows,2026-04-28 11:00:00+00:00,2,2,2,0,0.94,0.94,0.94,0.5,0.5,0.5,31.93,31.93,31.93,3.25,99.7,-2.32,67.04,55.8347917730994,-108.40387034522
Estevan,2026-04-28 11:00:00+00:00,1,1,1,0,5.15,5.15,5.15,7.5,7.5,7.5,6.86,6.86,6.86,3.45,254.22,-6.65,73.22,49.1323647672702,-102.985002018981
Prince Albert,2026-04-28 11:00:00+00:00,2,2,2,0,4.94,4.94,4.94,6.6,6.6,6.6,31.36,31.36,31.36,3.02,244.49,-1.59,65.97,53.2019378757967,-105.751586774025
Regina,2026-04-28 11:00:00+00:00,3,3,3,0,4.98,4.98,4.98,25.62,25.62,25.62,4.02,4.02,4.02,1.88,258.03,-3.93,63.71,50.4502077461615,-104.617125744561
Saskatoon,2026-04-28 11:00:00+00:00,2,2,2,0,4.19,4.19,4.19,11.32,11.32,11.32,22.0,22.0,22.0,4.31,150.71,-2.55,64.14,52.1361376913645,-106.662942708646
Swift Current,2026-04-28 11:00:00+00:00,2,2,2,0,4.0,4.0,4.0,10.77,10.77,10.77,17.38,17.38,17.38,2.3,315.85,-4.49,77.51,50.2858504122844,-107.816680514048
