station,datetime,AQHI_0,AQHI_1,AQHI_2,AQHI_trend,PM25_0,PM25_1,PM25_2,NO2_0,NO2_1,NO2_2,O3_0,O3_1,O3_2,WS,WD,TEMP,RH,lat,lon
Buffalo Narrows,2026-04-29 17:00:00+00:00,2,2,2,0,3.17,3.17,3.17,0.56,0.56,0.56,36.76,36.76,36.76,4.35,208.71,3.22,48.74,55.8347917730994,-108.40387034522
Estevan,2026-04-29 17:00:00+00:00,2,2,2,0,4.15,4.15,4.15,2.47,2.47,2.47,37.59,37.59,37.59,10.16,341.9,4.23,40.55,49.1323647672702,-102.985002018981
Prince Albert,2026-04-29 17:00:00+00:00,2,2,2,0,5.78,5.78,5.78,2.15,2.15,2.15,38.54,38.54,38.54,9.7,356.92,5.52,42.37,53.2019378757967,-105.751586774025
Regina,2026-04-29 17:00:00+00:00,2,2,2,0,4.45,4.45,4.45,2.32,2.32,2.32,37.63,37.63,37.63,13.72,290.51,6.43,36.33,50.4502077461615,-104.617125744561
Saskatoon,2026-04-29 17:00:00+00:00,2,2,2,0,5.0,5.0,5.0,3.03,3.03,3.03,36.76,36.76,36.76,12.45,299.02,8.78,38.64,52.1361376913645,-106.662942708646
Swift Current,2026-04-29 17:00:00+00:00,3,3,3,0,4.92,4.92,4.92,7.9,7.9,7.9,34.25,34.25,34.25,5.4,293.63,7.68,38.57,50.2858504122844,-107.816680514048
