station,datetime,AQHI_0,AQHI_1,AQHI_2,AQHI_trend,PM25_0,PM25_1,PM25_2,NO2_0,NO2_1,NO2_2,O3_0,O3_1,O3_2,WS,WD,TEMP,RH,lat,lon
Buffalo Narrows,2026-04-25 18:00:00+00:00,2,2,2,0,0.75,0.75,0.75,0.3,0.3,0.3,34.84,34.84,34.84,16.13,344.31,-4.8,75.23,55.8347917730994,-108.40387034522
Estevan,2026-04-25 18:00:00+00:00,2,2,2,0,1.86,1.86,1.86,1.2,1.2,1.2,33.3,33.3,33.3,26.59,248.39,-2.02,47.3,49.1323647672702,-102.985002018981
Prince Albert,2026-04-25 18:00:00+00:00,2,2,2,0,0.45,0.45,0.45,1.03,1.03,1.03,34.61,34.61,34.61,9.21,313.82,-1.55,70.9,53.2019378757967,-105.751586774025
Regina,2026-04-25 18:00:00+00:00,2,2,2,0,1.51,1.51,1.51,1.8,1.8,1.8,29.51,29.51,29.51,21.55,273.67,-3.34,70.73,50.4502077461615,-104.617125744561
Saskatoon,2026-04-25 18:00:00+00:00,2,2,2,0,0.95,0.95,0.95,3.12,3.12,3.12,32.92,32.92,32.92,14.84,319.13,-3.01,66.58,52.1361376913645,-106.662942708646
Swift Current,2026-04-25 18:00:00+00:00,2,2,2,0,2.19,2.19,2.19,2.92,2.92,2.92,37.4,37.4,37.4,27.88,288.61,-5.8,89.05,50.2858504122844,-107.816680514048
