station,datetime,AQHI_0,AQHI_1,AQHI_2,AQHI_trend,PM25_0,PM25_1,PM25_2,NO2_0,NO2_1,NO2_2,O3_0,O3_1,O3_2,WS,WD,TEMP,RH,lat,lon
Buffalo Narrows,2026-05-03 20:00:00+00:00,2,2,2,0,2.43,2.43,2.43,0.24,0.24,0.24,42.33,42.33,42.33,20.06,326.29,6.14,54.15,55.8347917730994,-108.40387034522
Estevan,2026-05-03 20:00:00+00:00,3,3,3,0,6.32,6.32,6.32,1.39,1.39,1.39,51.95,51.95,51.95,28.84,250.33,21.72,20.85,49.1323647672702,-102.985002018981
Prince Albert,2026-05-03 20:00:00+00:00,3,3,3,0,11.21,11.21,11.21,0.76,0.76,0.76,48.79,48.79,48.79,14.76,298.3,15.59,29.44,53.2019378757967,-105.751586774025
Regina,2026-05-03 20:00:00+00:00,3,3,3,0,4.41,4.41,4.41,1.83,1.83,1.83,41.77,41.77,41.77,19.69,314.62,21.57,21.78,50.4502077461615,-104.617125744561
Saskatoon,2026-05-03 20:00:00+00:00,4,4,4,0,19.23,19.23,19.23,1.71,1.71,1.71,48.89,48.89,48.89,26.1,311.25,19.23,22.65,52.1361376913645,-106.662942708646
Swift Current,2026-05-03 20:00:00+00:00,3,3,3,0,4.97,4.97,4.97,2.02,2.02,2.02,43.61,43.61,43.61,31.67,282.77,20.26,23.64,50.2858504122844,-107.816680514048
