station,datetime,AQHI_0,AQHI_1,AQHI_2,AQHI_trend,PM25_0,PM25_1,PM25_2,NO2_0,NO2_1,NO2_2,O3_0,O3_1,O3_2,WS,WD,TEMP,RH,lat,lon
Buffalo Narrows,2026-04-30 21:00:00+00:00,3,3,3,0,2.91,2.91,2.91,0.49,0.49,0.49,51.64,51.64,51.64,6.07,17.82,11.88,31.63,55.8347917730994,-108.40387034522
Estevan,2026-04-30 21:00:00+00:00,2,2,2,0,3.73,3.73,3.73,2.05,2.05,2.05,39.25,39.25,39.25,11.32,326.32,9.99,30.36,49.1323647672702,-102.985002018981
Prince Albert,2026-04-30 21:00:00+00:00,3,3,3,0,7.27,7.27,7.27,2.51,2.51,2.51,50.95,50.95,50.95,11.39,260.77,15.96,25.53,53.2019378757967,-105.751586774025
Regina,2026-04-30 21:00:00+00:00,3,3,3,0,4.34,4.34,4.34,1.98,1.98,1.98,44.89,44.89,44.89,11.78,344.14,12.66,24.1,50.4502077461615,-104.617125744561
Saskatoon,2026-04-30 21:00:00+00:00,3,3,3,0,4.59,4.59,4.59,2.74,2.74,2.74,46.77,46.77,46.77,8.3,285.9,16.64,20.37,52.1361376913645,-106.662942708646
Swift Current,2026-04-30 21:00:00+00:00,3,3,3,0,3.96,3.96,3.96,3.56,3.56,3.56,47.56,47.56,47.56,7.32,325.62,14.03,20.46,50.2858504122844,-107.816680514048
