station,datetime,AQHI_0,AQHI_1,AQHI_2,AQHI_trend,PM25_0,PM25_1,PM25_2,NO2_0,NO2_1,NO2_2,O3_0,O3_1,O3_2,WS,WD,TEMP,RH,lat,lon
Buffalo Narrows,2026-04-25 11:00:00+00:00,2,2,2,0,1.14,1.14,1.14,0.07,0.07,0.07,32.57,32.57,32.57,14.77,346.33,-6.94,81.38,55.8347917730994,-108.40387034522
Estevan,2026-04-25 11:00:00+00:00,2,2,2,0,2.43,2.43,2.43,1.52,1.52,1.52,31.69,31.69,31.69,17.96,235.72,-6.84,69.73,49.1323647672702,-102.985002018981
Prince Albert,2026-04-25 11:00:00+00:00,2,2,2,0,1.69,1.69,1.69,2.51,2.51,2.51,33.47,33.47,33.47,4.74,337.39,-3.31,77.83,53.2019378757967,-105.751586774025
Regina,2026-04-25 11:00:00+00:00,2,2,2,0,2.25,2.25,2.25,3.63,3.63,3.63,28.49,28.49,28.49,12.57,254.04,-7.46,73.36,50.4502077461615,-104.617125744561
Saskatoon,2026-04-25 11:00:00+00:00,2,2,2,0,0.46,0.46,0.46,2.98,2.98,2.98,31.93,31.93,31.93,17.22,345.0,-5.36,81.95,52.1361376913645,-106.662942708646
Swift Current,2026-04-25 11:00:00+00:00,2,2,2,0,1.42,1.42,1.42,2.04,2.04,2.04,35.12,35.12,35.12,24.08,291.0,-7.81,94.06,50.2858504122844,-107.816680514048
