station,datetime,AQHI_0,AQHI_1,AQHI_2,AQHI_trend,PM25_0,PM25_1,PM25_2,NO2_0,NO2_1,NO2_2,O3_0,O3_1,O3_2,WS,WD,TEMP,RH,lat,lon
Buffalo Narrows,2026-04-30 18:00:00+00:00,3,3,3,0,3.15,3.15,3.15,0.71,0.71,0.71,52.4,52.4,52.4,8.75,308.01,12.05,29.88,55.8347917730994,-108.40387034522
Estevan,2026-04-30 18:00:00+00:00,2,2,2,0,3.38,3.38,3.38,2.75,2.75,2.75,36.82,36.82,36.82,9.19,320.29,6.61,37.12,49.1323647672702,-102.985002018981
Prince Albert,2026-04-30 18:00:00+00:00,3,3,3,0,6.99,6.99,6.99,4.41,4.41,4.41,39.47,39.47,39.47,9.12,222.59,10.78,37.07,53.2019378757967,-105.751586774025
Regina,2026-04-30 18:00:00+00:00,2,2,2,0,3.6,3.6,3.6,2.43,2.43,2.43,38.76,38.76,38.76,7.58,277.39,9.47,32.34,50.4502077461615,-104.617125744561
Saskatoon,2026-04-30 18:00:00+00:00,3,3,3,0,6.43,6.43,6.43,2.62,2.62,2.62,43.24,43.24,43.24,9.75,256.34,13.33,26.82,52.1361376913645,-106.662942708646
Swift Current,2026-04-30 18:00:00+00:00,3,3,3,0,3.93,3.93,3.93,3.79,3.79,3.79,45.56,45.56,45.56,6.19,322.38,11.92,26.47,50.2858504122844,-107.816680514048
