station,datetime,AQHI_0,AQHI_1,AQHI_2,AQHI_trend,PM25_0,PM25_1,PM25_2,NO2_0,NO2_1,NO2_2,O3_0,O3_1,O3_2,WS,WD,TEMP,RH,lat,lon
Buffalo Narrows,2026-04-27 20:00:00+00:00,2,2,2,0,0.34,0.34,0.34,0.26,0.26,0.26,35.82,35.82,35.82,9.39,358.08,-2.4,58.8,55.8347917730994,-108.40387034522
Estevan,2026-04-27 20:00:00+00:00,2,2,2,0,3.2,3.2,3.2,2.46,2.46,2.46,32.74,32.74,32.74,10.87,309.2,4.28,35.8,49.1323647672702,-102.985002018981
Prince Albert,2026-04-27 20:00:00+00:00,3,3,3,0,7.29,7.29,7.29,4.08,4.08,4.08,36.67,36.67,36.67,7.57,265.84,1.7,53.72,53.2019378757967,-105.751586774025
Regina,2026-04-27 20:00:00+00:00,2,2,2,0,3.67,3.67,3.67,2.43,2.43,2.43,31.79,31.79,31.79,9.8,312.62,0.85,43.8,50.4502077461615,-104.617125744561
Saskatoon,2026-04-27 20:00:00+00:00,2,2,2,0,3.78,3.78,3.78,2.46,2.46,2.46,35.56,35.56,35.56,9.02,216.06,1.15,46.86,52.1361376913645,-106.662942708646
Swift Current,2026-04-27 20:00:00+00:00,2,2,2,0,3.44,3.44,3.44,2.68,2.68,2.68,32.8,32.8,32.8,7.7,225.09,-0.62,52.13,50.2858504122844,-107.816680514048
