station,datetime,AQHI_0,AQHI_1,AQHI_2,AQHI_trend,PM25_0,PM25_1,PM25_2,NO2_0,NO2_1,NO2_2,O3_0,O3_1,O3_2,WS,WD,TEMP,RH,lat,lon
Buffalo Narrows,2026-04-29 11:00:00+00:00,2,2,2,0,2.99,2.99,2.99,1.28,1.28,1.28,24.98,24.98,24.98,1.87,146.41,-5.31,75.51,55.8347917730994,-108.40387034522
Estevan,2026-04-29 11:00:00+00:00,2,2,2,0,5.45,5.45,5.45,5.33,5.33,5.33,19.15,19.15,19.15,9.06,19.43,-3.09,67.54,49.1323647672702,-102.985002018981
Prince Albert,2026-04-29 11:00:00+00:00,2,2,2,0,3.72,3.72,3.72,4.3,4.3,4.3,36.01,36.01,36.01,6.99,267.64,2.77,53.79,53.2019378757967,-105.751586774025
Regina,2026-04-29 11:00:00+00:00,2,2,2,0,5.38,5.38,5.38,12.75,12.75,12.75,12.38,12.38,12.38,5.36,245.12,-2.79,69.18,50.4502077461615,-104.617125744561
Saskatoon,2026-04-29 11:00:00+00:00,2,2,2,0,4.22,4.22,4.22,8.24,8.24,8.24,23.07,23.07,23.07,7.52,211.1,1.17,60.38,52.1361376913645,-106.662942708646
Swift Current,2026-04-29 11:00:00+00:00,2,2,2,0,4.18,4.18,4.18,9.99,9.99,9.99,20.52,20.52,20.52,2.66,115.96,-1.83,74.66,50.2858504122844,-107.816680514048
