station,datetime,AQHI_0,AQHI_1,AQHI_2,AQHI_trend,PM25_0,PM25_1,PM25_2,NO2_0,NO2_1,NO2_2,O3_0,O3_1,O3_2,WS,WD,TEMP,RH,lat,lon
Buffalo Narrows,2026-04-24 02:00:00+00:00,2,2,2,0,1.46,1.46,1.46,0.11,0.11,0.11,41.82,41.82,41.82,25.64,350.02,-5.51,81.47,55.8347917730994,-108.40387034522
Estevan,2026-04-24 02:00:00+00:00,2,2,2,0,3.36,3.36,3.36,2.39,2.39,2.39,30.01,30.01,30.01,19.92,281.1,1.97,58.87,49.1323647672702,-102.985002018981
Prince Albert,2026-04-24 02:00:00+00:00,2,2,2,0,1.55,1.55,1.55,2.01,2.01,2.01,38.79,38.79,38.79,8.85,330.44,-3.91,76.23,53.2019378757967,-105.751586774025
Regina,2026-04-24 02:00:00+00:00,2,2,2,0,3.88,3.88,3.88,2.27,2.27,2.27,26.84,26.84,26.84,21.53,300.27,0.89,65.72,50.4502077461615,-104.617125744561
Saskatoon,2026-04-24 02:00:00+00:00,2,2,2,0,1.56,1.56,1.56,2.39,2.39,2.39,34.98,34.98,34.98,16.07,321.5,-1.4,59.31,52.1361376913645,-106.662942708646
Swift Current,2026-04-24 02:00:00+00:00,2,2,2,0,1.69,1.69,1.69,2.17,2.17,2.17,36.87,36.87,36.87,26.5,306.77,0.43,66.95,50.2858504122844,-107.816680514048
