station,datetime,AQHI_0,AQHI_1,AQHI_2,AQHI_trend,PM25_0,PM25_1,PM25_2,NO2_0,NO2_1,NO2_2,O3_0,O3_1,O3_2,WS,WD,TEMP,RH,lat,lon
Buffalo Narrows,2026-04-30 00:00:00+00:00,3,3,3,0,2.72,2.72,2.72,0.91,0.91,0.91,45.73,45.73,45.73,4.14,7.49,9.22,31.43,55.8347917730994,-108.40387034522
Estevan,2026-04-30 00:00:00+00:00,3,3,3,0,5.02,5.02,5.02,3.09,3.09,3.09,40.44,40.44,40.44,10.77,265.03,8.73,28.04,49.1323647672702,-102.985002018981
Prince Albert,2026-04-30 00:00:00+00:00,3,3,3,0,8.25,8.25,8.25,3.79,3.79,3.79,39.33,39.33,39.33,7.13,169.91,8.43,39.4,53.2019378757967,-105.751586774025
Regina,2026-04-30 00:00:00+00:00,3,3,3,0,5.03,5.03,5.03,2.45,2.45,2.45,41.32,41.32,41.32,18.67,318.74,10.42,33.13,50.4502077461615,-104.617125744561
Saskatoon,2026-04-30 00:00:00+00:00,3,3,3,0,6.25,6.25,6.25,3.17,3.17,3.17,43.15,43.15,43.15,9.56,4.33,11.57,33.5,52.1361376913645,-106.662942708646
Swift Current,2026-04-30 00:00:00+00:00,3,3,3,0,4.64,4.64,4.64,5.32,5.32,5.32,46.01,46.01,46.01,8.75,310.85,11.52,27.39,50.2858504122844,-107.816680514048
