station,datetime,AQHI_0,AQHI_1,AQHI_2,AQHI_trend,PM25_0,PM25_1,PM25_2,NO2_0,NO2_1,NO2_2,O3_0,O3_1,O3_2,WS,WD,TEMP,RH,lat,lon
Buffalo Narrows,2026-05-01 00:00:00+00:00,3,3,3,0,3.05,3.05,3.05,0.33,0.33,0.33,52.35,52.35,52.35,5.76,359.14,12.05,32.86,55.8347917730994,-108.40387034522
Estevan,2026-05-01 00:00:00+00:00,3,3,3,0,4.4,4.4,4.4,2.31,2.31,2.31,41.33,41.33,41.33,8.59,306.13,11.97,25.71,49.1323647672702,-102.985002018981
Prince Albert,2026-05-01 00:00:00+00:00,3,3,3,0,9.5,9.5,9.5,2.4,2.4,2.4,51.2,51.2,51.2,8.83,272.37,17.2,23.08,53.2019378757967,-105.751586774025
Regina,2026-05-01 00:00:00+00:00,3,3,3,0,4.63,4.63,4.63,1.65,1.65,1.65,44.66,44.66,44.66,13.03,345.72,13.79,24.9,50.4502077461615,-104.617125744561
Saskatoon,2026-05-01 00:00:00+00:00,3,3,3,0,4.75,4.75,4.75,0.95,0.95,0.95,50.15,50.15,50.15,9.82,261.72,18.06,18.01,52.1361376913645,-106.662942708646
Swift Current,2026-05-01 00:00:00+00:00,3,3,3,0,3.62,3.62,3.62,3.28,3.28,3.28,50.9,50.9,50.9,6.33,333.1,15.03,17.26,50.2858504122844,-107.816680514048
