station,datetime,AQHI_0,AQHI_1,AQHI_2,AQHI_trend,PM25_0,PM25_1,PM25_2,NO2_0,NO2_1,NO2_2,O3_0,O3_1,O3_2,WS,WD,TEMP,RH,lat,lon
Buffalo Narrows,2026-05-01 13:00:00+00:00,2,2,2,0,3.07,3.07,3.07,0.67,0.67,0.67,41.8,41.8,41.8,2.96,160.61,3.62,53.04,55.8347917730994,-108.40387034522
Estevan,2026-05-01 13:00:00+00:00,2,2,2,0,10.86,10.86,10.86,11.5,11.5,11.5,11.69,11.69,11.69,3.37,149.97,-0.26,64.0,49.1323647672702,-102.985002018981
Prince Albert,2026-05-01 13:00:00+00:00,2,2,2,0,7.28,7.28,7.28,6.13,6.13,6.13,25.56,25.56,25.56,4.45,91.49,1.45,70.19,53.2019378757967,-105.751586774025
Regina,2026-05-01 13:00:00+00:00,2,2,2,0,6.33,6.33,6.33,12.67,12.67,12.67,21.05,21.05,21.05,5.19,232.48,3.8,48.83,50.4502077461615,-104.617125744561
Saskatoon,2026-05-01 13:00:00+00:00,2,2,2,0,4.38,4.38,4.38,6.95,6.95,6.95,29.76,29.76,29.76,7.77,191.96,5.25,46.76,52.1361376913645,-106.662942708646
Swift Current,2026-05-01 13:00:00+00:00,2,2,2,0,3.39,3.39,3.39,2.9,2.9,2.9,35.13,35.13,35.13,11.58,189.1,4.32,51.31,50.2858504122844,-107.816680514048
