station,datetime,AQHI_0,AQHI_1,AQHI_2,AQHI_trend,PM25_0,PM25_1,PM25_2,NO2_0,NO2_1,NO2_2,O3_0,O3_1,O3_2,WS,WD,TEMP,RH,lat,lon
Buffalo Narrows,2026-04-27 16:00:00+00:00,2,2,2,0,0.59,0.59,0.59,0.22,0.22,0.22,33.6,33.6,33.6,4.25,26.62,-5.56,71.81,55.8347917730994,-108.40387034522
Estevan,2026-04-27 16:00:00+00:00,2,2,2,0,2.94,2.94,2.94,3.35,3.35,3.35,28.14,28.14,28.14,9.41,333.23,0.06,53.77,49.1323647672702,-102.985002018981
Prince Albert,2026-04-27 16:00:00+00:00,2,2,2,0,2.65,2.65,2.65,4.44,4.44,4.44,30.55,30.55,30.55,3.38,287.09,-0.68,66.19,53.2019378757967,-105.751586774025
Regina,2026-04-27 16:00:00+00:00,2,2,2,0,4.35,4.35,4.35,2.31,2.31,2.31,27.9,27.9,27.9,11.79,337.11,-0.71,56.06,50.4502077461615,-104.617125744561
Saskatoon,2026-04-27 16:00:00+00:00,2,2,2,0,4.37,4.37,4.37,3.74,3.74,3.74,28.69,28.69,28.69,7.72,247.32,-1.22,60.63,52.1361376913645,-106.662942708646
Swift Current,2026-04-27 16:00:00+00:00,3,3,3,0,2.9,2.9,2.9,11.66,11.66,11.66,28.51,28.51,28.51,5.14,239.21,-2.89,56.45,50.2858504122844,-107.816680514048
