station,datetime,AQHI_0,AQHI_1,AQHI_2,AQHI_trend,PM25_0,PM25_1,PM25_2,NO2_0,NO2_1,NO2_2,O3_0,O3_1,O3_2,WS,WD,TEMP,RH,lat,lon
Buffalo Narrows,2026-04-30 16:00:00+00:00,3,3,3,0,2.83,2.83,2.83,0.82,0.82,0.82,49.02,49.02,49.02,11.79,273.48,11.22,29.41,55.8347917730994,-108.40387034522
Estevan,2026-04-30 16:00:00+00:00,2,2,2,0,3.6,3.6,3.6,2.92,2.92,2.92,33.78,33.78,33.78,8.46,331.34,3.99,46.41,49.1323647672702,-102.985002018981
Prince Albert,2026-04-30 16:00:00+00:00,3,3,3,0,9.34,9.34,9.34,5.72,5.72,5.72,33.62,33.62,33.62,4.43,275.19,5.96,46.85,53.2019378757967,-105.751586774025
Regina,2026-04-30 16:00:00+00:00,2,2,2,0,4.36,4.36,4.36,4.04,4.04,4.04,30.31,30.31,30.31,7.65,239.07,5.14,46.77,50.4502077461615,-104.617125744561
Saskatoon,2026-04-30 16:00:00+00:00,2,2,2,0,10.74,10.74,10.74,9.77,9.77,9.77,21.36,21.36,21.36,5.65,200.92,7.67,51.57,52.1361376913645,-106.662942708646
Swift Current,2026-04-30 16:00:00+00:00,3,3,3,0,5.01,5.01,5.01,7.01,7.01,7.01,33.04,33.04,33.04,3.06,173.88,8.4,42.8,50.2858504122844,-107.816680514048
