station,datetime,AQHI_0,AQHI_1,AQHI_2,AQHI_trend,PM25_0,PM25_1,PM25_2,NO2_0,NO2_1,NO2_2,O3_0,O3_1,O3_2,WS,WD,TEMP,RH,lat,lon
Buffalo Narrows,2026-04-27 12:00:00+00:00,2,2,2,0,1.02,1.02,1.02,0.44,0.44,0.44,30.98,30.98,30.98,1.66,10.11,-6.41,76.37,55.8347917730994,-108.40387034522
Estevan,2026-04-27 12:00:00+00:00,2,2,2,0,2.92,2.92,2.92,2.68,2.68,2.68,22.45,22.45,22.45,10.45,334.34,-2.62,64.85,49.1323647672702,-102.985002018981
Prince Albert,2026-04-27 12:00:00+00:00,2,2,2,0,1.51,1.51,1.51,6.96,6.96,6.96,27.7,27.7,27.7,2.98,281.51,-3.52,75.04,53.2019378757967,-105.751586774025
Regina,2026-04-27 12:00:00+00:00,2,2,2,0,3.5,3.5,3.5,8.42,8.42,8.42,19.6,19.6,19.6,6.17,300.54,-4.83,66.13,50.4502077461615,-104.617125744561
Saskatoon,2026-04-27 12:00:00+00:00,2,2,2,0,2.99,2.99,2.99,4.01,4.01,4.01,28.27,28.27,28.27,6.89,262.82,-2.0,65.18,52.1361376913645,-106.662942708646
Swift Current,2026-04-27 12:00:00+00:00,2,2,2,0,3.08,3.08,3.08,9.76,9.76,9.76,28.39,28.39,28.39,5.42,272.24,-3.8,60.59,50.2858504122844,-107.816680514048
