station,datetime,AQHI_0,AQHI_1,AQHI_2,AQHI_trend,PM25_0,PM25_1,PM25_2,NO2_0,NO2_1,NO2_2,O3_0,O3_1,O3_2,WS,WD,TEMP,RH,lat,lon
Buffalo Narrows,2026-04-25 14:00:00+00:00,2,2,2,0,1.12,1.12,1.12,0.41,0.41,0.41,32.37,32.37,32.37,14.94,347.78,-6.9,80.32,55.8347917730994,-108.40387034522
Estevan,2026-04-25 14:00:00+00:00,2,2,2,0,2.39,2.39,2.39,1.27,1.27,1.27,32.67,32.67,32.67,27.53,239.32,-5.05,64.89,49.1323647672702,-102.985002018981
Prince Albert,2026-04-25 14:00:00+00:00,2,2,2,0,1.62,1.62,1.62,2.06,2.06,2.06,33.67,33.67,33.67,7.39,337.24,-3.69,75.29,53.2019378757967,-105.751586774025
Regina,2026-04-25 14:00:00+00:00,2,2,2,0,2.51,2.51,2.51,2.65,2.65,2.65,28.39,28.39,28.39,17.54,252.34,-6.06,73.73,50.4502077461615,-104.617125744561
Saskatoon,2026-04-25 14:00:00+00:00,2,2,2,0,0.53,0.53,0.53,4.31,4.31,4.31,30.5,30.5,30.5,14.43,337.13,-5.19,76.92,52.1361376913645,-106.662942708646
Swift Current,2026-04-25 14:00:00+00:00,2,2,2,0,1.34,1.34,1.34,4.52,4.52,4.52,34.5,34.5,34.5,23.23,291.79,-7.6,96.23,50.2858504122844,-107.816680514048
