station,datetime,AQHI_0,AQHI_1,AQHI_2,AQHI_trend,PM25_0,PM25_1,PM25_2,NO2_0,NO2_1,NO2_2,O3_0,O3_1,O3_2,WS,WD,TEMP,RH,lat,lon
Buffalo Narrows,2026-05-02 19:00:00+00:00,2,2,2,0,0.8,0.8,0.8,0.22,0.22,0.22,44.87,44.87,44.87,4.74,143.2,9.47,33.94,55.8347917730994,-108.40387034522
Estevan,2026-05-02 19:00:00+00:00,3,3,3,0,7.32,7.32,7.32,2.71,2.71,2.71,53.11,53.11,53.11,22.74,327.04,17.48,32.7,49.1323647672702,-102.985002018981
Prince Albert,2026-05-02 19:00:00+00:00,2,2,2,0,4.59,4.59,4.59,0.92,0.92,0.92,40.34,40.34,40.34,8.55,292.17,15.69,28.5,53.2019378757967,-105.751586774025
Regina,2026-05-02 19:00:00+00:00,2,2,2,0,4.13,4.13,4.13,0.97,0.97,0.97,40.02,40.02,40.02,24.68,351.69,15.46,25.18,50.4502077461615,-104.617125744561
Saskatoon,2026-05-02 19:00:00+00:00,2,2,2,0,3.63,3.63,3.63,1.79,1.79,1.79,41.51,41.51,41.51,12.41,301.82,16.85,28.08,52.1361376913645,-106.662942708646
Swift Current,2026-05-02 19:00:00+00:00,3,3,3,0,3.14,3.14,3.14,2.61,2.61,2.61,41.99,41.99,41.99,8.63,322.32,16.81,29.73,50.2858504122844,-107.816680514048
