station,datetime,AQHI_0,AQHI_1,AQHI_2,AQHI_trend,PM25_0,PM25_1,PM25_2,NO2_0,NO2_1,NO2_2,O3_0,O3_1,O3_2,WS,WD,TEMP,RH,lat,lon
Buffalo Narrows,2026-04-25 05:00:00+00:00,2,2,2,0,2.04,2.04,2.04,0.07,0.07,0.07,35.89,35.89,35.89,20.45,351.47,-6.15,78.89,55.8347917730994,-108.40387034522
Estevan,2026-04-25 05:00:00+00:00,2,2,2,0,2.22,2.22,2.22,1.6,1.6,1.6,35.82,35.82,35.82,22.11,245.28,-4.19,64.65,49.1323647672702,-102.985002018981
Prince Albert,2026-04-25 05:00:00+00:00,2,2,2,0,0.36,0.36,0.36,1.24,1.24,1.24,34.89,34.89,34.89,8.09,338.78,-3.82,78.88,53.2019378757967,-105.751586774025
Regina,2026-04-25 05:00:00+00:00,2,2,2,0,1.88,1.88,1.88,3.67,3.67,3.67,31.03,31.03,31.03,12.86,277.21,-5.82,72.01,50.4502077461615,-104.617125744561
Saskatoon,2026-04-25 05:00:00+00:00,2,2,2,0,1.83,1.83,1.83,2.52,2.52,2.52,33.71,33.71,33.71,12.81,306.15,-5.66,80.01,52.1361376913645,-106.662942708646
Swift Current,2026-04-25 05:00:00+00:00,2,2,2,0,1.71,1.71,1.71,1.81,1.81,1.81,37.67,37.67,37.67,26.27,286.14,-7.49,93.25,50.2858504122844,-107.816680514048
