station,datetime,AQHI_0,AQHI_1,AQHI_2,AQHI_trend,PM25_0,PM25_1,PM25_2,NO2_0,NO2_1,NO2_2,O3_0,O3_1,O3_2,WS,WD,TEMP,RH,lat,lon
Buffalo Narrows,2026-04-25 01:00:00+00:00,2,2,2,0,1.82,1.82,1.82,0.12,0.12,0.12,36.91,36.91,36.91,22.33,353.28,-5.69,81.12,55.8347917730994,-108.40387034522
Estevan,2026-04-25 01:00:00+00:00,2,2,2,0,1.97,1.97,1.97,1.78,1.78,1.78,38.12,38.12,38.12,27.02,250.76,-2.11,55.82,49.1323647672702,-102.985002018981
Prince Albert,2026-04-25 01:00:00+00:00,2,2,2,0,0.44,0.44,0.44,1.08,1.08,1.08,36.29,36.29,36.29,12.86,331.47,-4.32,74.31,53.2019378757967,-105.751586774025
Regina,2026-04-25 01:00:00+00:00,2,2,2,0,1.79,1.79,1.79,3.09,3.09,3.09,33.47,33.47,33.47,17.19,274.89,-4.58,71.16,50.4502077461615,-104.617125744561
Saskatoon,2026-04-25 01:00:00+00:00,2,2,2,0,1.91,1.91,1.91,2.35,2.35,2.35,35.59,35.59,35.59,15.81,314.6,-4.96,76.65,52.1361376913645,-106.662942708646
Swift Current,2026-04-25 01:00:00+00:00,3,3,3,0,2.33,2.33,2.33,3.69,3.69,3.69,40.05,40.05,40.05,18.4,318.3,-6.92,94.45,50.2858504122844,-107.816680514048
