station,datetime,AQHI_0,AQHI_1,AQHI_2,AQHI_trend,PM25_0,PM25_1,PM25_2,NO2_0,NO2_1,NO2_2,O3_0,O3_1,O3_2,WS,WD,TEMP,RH,lat,lon
Buffalo Narrows,2026-04-29 10:00:00+00:00,1,1,1,0,2.76,2.76,2.76,0.63,0.63,0.63,22.35,22.35,22.35,1.51,202.78,-5.19,76.05,55.8347917730994,-108.40387034522
Estevan,2026-04-29 10:00:00+00:00,2,2,2,0,5.32,5.32,5.32,6.18,6.18,6.18,18.29,18.29,18.29,8.4,8.87,-2.57,64.49,49.1323647672702,-102.985002018981
Prince Albert,2026-04-29 10:00:00+00:00,2,2,2,0,3.81,3.81,3.81,4.24,4.24,4.24,36.37,36.37,36.37,6.72,266.06,2.84,54.28,53.2019378757967,-105.751586774025
Regina,2026-04-29 10:00:00+00:00,3,3,3,0,7.29,7.29,7.29,26.7,26.7,26.7,6.04,6.04,6.04,4.41,247.52,-1.13,62.47,50.4502077461615,-104.617125744561
Saskatoon,2026-04-29 10:00:00+00:00,2,2,2,0,4.14,4.14,4.14,6.64,6.64,6.64,25.81,25.81,25.81,6.66,209.51,1.45,59.28,52.1361376913645,-106.662942708646
Swift Current,2026-04-29 10:00:00+00:00,2,2,2,0,4.06,4.06,4.06,5.44,5.44,5.44,25.69,25.69,25.69,2.65,202.53,-1.28,71.44,50.2858504122844,-107.816680514048
