station,datetime,AQHI_0,AQHI_1,AQHI_2,AQHI_trend,PM25_0,PM25_1,PM25_2,NO2_0,NO2_1,NO2_2,O3_0,O3_1,O3_2,WS,WD,TEMP,RH,lat,lon
Buffalo Narrows,2026-04-24 11:00:00+00:00,2,2,2,0,2.34,2.34,2.34,0.09,0.09,0.09,43.76,43.76,43.76,23.78,344.86,-7.27,80.47,55.8347917730994,-108.40387034522
Estevan,2026-04-24 11:00:00+00:00,2,2,2,0,1.34,1.34,1.34,2.15,2.15,2.15,31.06,31.06,31.06,19.75,250.53,-1.42,65.36,49.1323647672702,-102.985002018981
Prince Albert,2026-04-24 11:00:00+00:00,2,2,2,0,0.45,0.45,0.45,1.32,1.32,1.32,37.71,37.71,37.71,7.84,308.56,-5.32,78.59,53.2019378757967,-105.751586774025
Regina,2026-04-24 11:00:00+00:00,2,2,2,0,1.14,1.14,1.14,2.49,2.49,2.49,32.7,32.7,32.7,16.68,282.27,-4.34,69.54,50.4502077461615,-104.617125744561
Saskatoon,2026-04-24 11:00:00+00:00,2,2,2,0,2.82,2.82,2.82,1.99,1.99,1.99,36.76,36.76,36.76,15.45,313.16,-5.13,74.15,52.1361376913645,-106.662942708646
Swift Current,2026-04-24 11:00:00+00:00,2,2,2,0,1.47,1.47,1.47,2.85,2.85,2.85,40.08,40.08,40.08,27.2,299.22,-6.7,89.51,50.2858504122844,-107.816680514048
