station,datetime,AQHI_0,AQHI_1,AQHI_2,AQHI_trend,PM25_0,PM25_1,PM25_2,NO2_0,NO2_1,NO2_2,O3_0,O3_1,O3_2,WS,WD,TEMP,RH,lat,lon
Buffalo Narrows,2026-04-26 04:00:00+00:00,2,2,2,0,0.38,0.38,0.38,0.07,0.07,0.07,31.82,31.82,31.82,18.03,350.84,-4.3,79.42,55.8347917730994,-108.40387034522
Estevan,2026-04-26 04:00:00+00:00,2,2,2,0,2.52,2.52,2.52,4.23,4.23,4.23,26.71,26.71,26.71,6.97,263.06,-2.42,54.7,49.1323647672702,-102.985002018981
Prince Albert,2026-04-26 04:00:00+00:00,2,2,2,0,1.3,1.3,1.3,2.53,2.53,2.53,35.67,35.67,35.67,5.94,22.62,-1.98,81.96,53.2019378757967,-105.751586774025
Regina,2026-04-26 04:00:00+00:00,2,2,2,0,2.78,2.78,2.78,8.05,8.05,8.05,23.81,23.81,23.81,9.73,246.67,-2.3,63.86,50.4502077461615,-104.617125744561
Saskatoon,2026-04-26 04:00:00+00:00,2,2,2,0,0.86,0.86,0.86,2.78,2.78,2.78,31.12,31.12,31.12,9.75,272.75,-1.55,68.65,52.1361376913645,-106.662942708646
Swift Current,2026-04-26 04:00:00+00:00,2,2,2,0,1.76,1.76,1.76,8.44,8.44,8.44,30.57,30.57,30.57,8.07,282.98,-5.47,93.65,50.2858504122844,-107.816680514048
