station,datetime,AQHI_0,AQHI_1,AQHI_2,AQHI_trend,PM25_0,PM25_1,PM25_2,NO2_0,NO2_1,NO2_2,O3_0,O3_1,O3_2,WS,WD,TEMP,RH,lat,lon
Buffalo Narrows,2026-04-25 00:00:00+00:00,2,2,2,0,1.86,1.86,1.86,0.14,0.14,0.14,36.66,36.66,36.66,22.9,353.93,-5.79,80.84,55.8347917730994,-108.40387034522
Estevan,2026-04-25 00:00:00+00:00,2,2,2,0,1.8,1.8,1.8,1.97,1.97,1.97,37.66,37.66,37.66,26.5,255.62,-0.95,45.23,49.1323647672702,-102.985002018981
Prince Albert,2026-04-25 00:00:00+00:00,2,2,2,0,0.64,0.64,0.64,1.32,1.32,1.32,36.61,36.61,36.61,11.8,332.8,-4.22,74.92,53.2019378757967,-105.751586774025
Regina,2026-04-25 00:00:00+00:00,2,2,2,0,1.73,1.73,1.73,3.04,3.04,3.04,34.24,34.24,34.24,18.0,278.52,-4.46,69.49,50.4502077461615,-104.617125744561
Saskatoon,2026-04-25 00:00:00+00:00,2,2,2,0,1.9,1.9,1.9,1.96,1.96,1.96,36.47,36.47,36.47,17.35,316.48,-5.07,77.63,52.1361376913645,-106.662942708646
Swift Current,2026-04-25 00:00:00+00:00,3,3,3,0,2.44,2.44,2.44,3.15,3.15,3.15,42.05,42.05,42.05,22.33,310.79,-5.97,89.95,50.2858504122844,-107.816680514048
