station,datetime,AQHI_0,AQHI_1,AQHI_2,AQHI_trend,PM25_0,PM25_1,PM25_2,NO2_0,NO2_1,NO2_2,O3_0,O3_1,O3_2,WS,WD,TEMP,RH,lat,lon
Buffalo Narrows,2026-04-24 18:00:00+00:00,2,2,2,0,1.95,1.95,1.95,0.26,0.26,0.26,39.8,39.8,39.8,25.42,347.08,-6.48,78.66,55.8347917730994,-108.40387034522
Estevan,2026-04-24 18:00:00+00:00,2,2,2,0,2.45,2.45,2.45,1.38,1.38,1.38,39.52,39.52,39.52,35.39,249.34,-0.58,42.22,49.1323647672702,-102.985002018981
Prince Albert,2026-04-24 18:00:00+00:00,2,2,2,0,1.35,1.35,1.35,1.24,1.24,1.24,38.16,38.16,38.16,11.33,324.08,-5.03,77.96,53.2019378757967,-105.751586774025
Regina,2026-04-24 18:00:00+00:00,2,2,2,0,1.88,1.88,1.88,2.45,2.45,2.45,33.42,33.42,33.42,22.71,277.6,-4.37,70.82,50.4502077461615,-104.617125744561
Saskatoon,2026-04-24 18:00:00+00:00,2,2,2,0,1.98,1.98,1.98,2.56,2.56,2.56,38.87,38.87,38.87,18.89,312.76,-5.81,81.61,52.1361376913645,-106.662942708646
Swift Current,2026-04-24 18:00:00+00:00,2,2,2,0,2.22,2.22,2.22,2.76,2.76,2.76,40.7,40.7,40.7,24.88,308.54,-6.39,89.13,50.2858504122844,-107.816680514048
