station,datetime,AQHI_0,AQHI_1,AQHI_2,AQHI_trend,PM25_0,PM25_1,PM25_2,NO2_0,NO2_1,NO2_2,O3_0,O3_1,O3_2,WS,WD,TEMP,RH,lat,lon
Buffalo Narrows,2026-04-30 15:00:00+00:00,3,3,3,0,2.66,2.66,2.66,1.13,1.13,1.13,46.13,46.13,46.13,7.72,264.16,9.72,32.64,55.8347917730994,-108.40387034522
Estevan,2026-04-30 15:00:00+00:00,2,2,2,0,3.9,3.9,3.9,5.57,5.57,5.57,29.67,29.67,29.67,5.86,350.19,2.48,50.57,49.1323647672702,-102.985002018981
Prince Albert,2026-04-30 15:00:00+00:00,2,2,2,0,11.12,11.12,11.12,7.12,7.12,7.12,23.84,23.84,23.84,3.7,309.32,2.48,60.51,53.2019378757967,-105.751586774025
Regina,2026-04-30 15:00:00+00:00,2,2,2,0,5.84,5.84,5.84,5.99,5.99,5.99,28.76,28.76,28.76,7.3,242.95,3.07,53.95,50.4502077461615,-104.617125744561
Saskatoon,2026-04-30 15:00:00+00:00,2,2,2,0,9.09,9.09,9.09,8.29,8.29,8.29,16.27,16.27,16.27,5.65,206.43,3.55,64.13,52.1361376913645,-106.662942708646
Swift Current,2026-04-30 15:00:00+00:00,2,2,2,0,7.11,7.11,7.11,4.66,4.66,4.66,28.62,28.62,28.62,3.83,142.28,4.67,56.89,50.2858504122844,-107.816680514048
