station,datetime,AQHI_0,AQHI_1,AQHI_2,AQHI_trend,PM25_0,PM25_1,PM25_2,NO2_0,NO2_1,NO2_2,O3_0,O3_1,O3_2,WS,WD,TEMP,RH,lat,lon
Buffalo Narrows,2026-05-02 11:00:00+00:00,2,2,2,0,0.88,0.88,0.88,0.44,0.44,0.44,33.66,33.66,33.66,4.02,207.29,0.38,62.78,55.8347917730994,-108.40387034522
Estevan,2026-05-02 11:00:00+00:00,3,3,3,0,7.78,7.78,7.78,14.94,14.94,14.94,19.11,19.11,19.11,10.75,241.53,8.9,38.47,49.1323647672702,-102.985002018981
Prince Albert,2026-05-02 11:00:00+00:00,3,3,3,0,4.57,4.57,4.57,3.23,3.23,3.23,38.65,38.65,38.65,3.1,286.12,4.82,68.61,53.2019378757967,-105.751586774025
Regina,2026-05-02 11:00:00+00:00,2,2,2,0,5.7,5.7,5.7,2.82,2.82,2.82,28.09,28.09,28.09,12.93,322.14,10.26,50.24,50.4502077461615,-104.617125744561
Saskatoon,2026-05-02 11:00:00+00:00,2,2,2,0,4.84,4.84,4.84,3.95,3.95,3.95,36.32,36.32,36.32,4.99,311.03,7.5,61.61,52.1361376913645,-106.662942708646
Swift Current,2026-05-02 11:00:00+00:00,2,2,2,0,4.49,4.49,4.49,15.66,15.66,15.66,15.75,15.75,15.75,6.69,279.59,8.37,66.93,50.2858504122844,-107.816680514048
