station,datetime,AQHI_0,AQHI_1,AQHI_2,AQHI_trend,PM25_0,PM25_1,PM25_2,NO2_0,NO2_1,NO2_2,O3_0,O3_1,O3_2,WS,WD,TEMP,RH,lat,lon
Buffalo Narrows,2026-05-03 23:00:00+00:00,2,2,2,0,2.4,2.4,2.4,0.28,0.28,0.28,41.46,41.46,41.46,17.64,320.66,4.67,61.75,55.8347917730994,-108.40387034522
Estevan,2026-05-03 23:00:00+00:00,3,3,3,0,9.29,9.29,9.29,1.15,1.15,1.15,50.61,50.61,50.61,25.95,271.7,23.32,20.77,49.1323647672702,-102.985002018981
Prince Albert,2026-05-03 23:00:00+00:00,3,3,3,0,9.65,9.65,9.65,0.53,0.53,0.53,49.57,49.57,49.57,22.45,326.67,13.44,30.85,53.2019378757967,-105.751586774025
Regina,2026-05-03 23:00:00+00:00,3,3,3,0,14.61,14.61,14.61,1.58,1.58,1.58,40.12,40.12,40.12,29.33,328.71,20.03,23.3,50.4502077461615,-104.617125744561
Saskatoon,2026-05-03 23:00:00+00:00,4,4,4,0,18.93,18.93,18.93,1.95,1.95,1.95,50.87,50.87,50.87,28.4,323.07,16.55,22.27,52.1361376913645,-106.662942708646
Swift Current,2026-05-03 23:00:00+00:00,3,3,3,0,5.41,5.41,5.41,2.08,2.08,2.08,43.24,43.24,43.24,27.99,316.3,21.22,23.36,50.2858504122844,-107.816680514048
