station,datetime,AQHI_0,AQHI_1,AQHI_2,AQHI_trend,PM25_0,PM25_1,PM25_2,NO2_0,NO2_1,NO2_2,O3_0,O3_1,O3_2,WS,WD,TEMP,RH,lat,lon
Buffalo Narrows,2026-05-02 17:00:00+00:00,2,2,2,0,0.68,0.68,0.68,0.31,0.31,0.31,42.0,42.0,42.0,4.62,186.28,6.83,43.07,55.8347917730994,-108.40387034522
Estevan,2026-05-02 17:00:00+00:00,3,3,3,0,9.47,9.47,9.47,1.92,1.92,1.92,49.67,49.67,49.67,22.97,320.62,15.63,36.74,49.1323647672702,-102.985002018981
Prince Albert,2026-05-02 17:00:00+00:00,2,2,2,0,3.66,3.66,3.66,0.83,0.83,0.83,41.96,41.96,41.96,5.41,312.19,13.2,33.68,53.2019378757967,-105.751586774025
Regina,2026-05-02 17:00:00+00:00,2,2,2,0,6.87,6.87,6.87,1.38,1.38,1.38,37.61,37.61,37.61,26.46,353.09,13.5,37.7,50.4502077461615,-104.617125744561
Saskatoon,2026-05-02 17:00:00+00:00,2,2,2,0,4.4,4.4,4.4,1.83,1.83,1.83,40.52,40.52,40.52,6.48,335.11,13.78,40.26,52.1361376913645,-106.662942708646
Swift Current,2026-05-02 17:00:00+00:00,3,3,3,0,4.21,4.21,4.21,2.33,2.33,2.33,45.36,45.36,45.36,7.63,35.32,14.73,35.54,50.2858504122844,-107.816680514048
