station,datetime,AQHI_0,AQHI_1,AQHI_2,AQHI_trend,PM25_0,PM25_1,PM25_2,NO2_0,NO2_1,NO2_2,O3_0,O3_1,O3_2,WS,WD,TEMP,RH,lat,lon
Buffalo Narrows,2026-05-04 06:00:00+00:00,2,2,2,0,2.6,2.6,2.6,0.18,0.18,0.18,34.29,34.29,34.29,12.6,320.24,1.54,57.29,55.8347917730994,-108.40387034522
Estevan,2026-05-04 06:00:00+00:00,2,2,2,0,3.19,3.19,3.19,1.25,1.25,1.25,42.37,42.37,42.37,23.72,321.86,9.02,39.05,49.1323647672702,-102.985002018981
Prince Albert,2026-05-04 06:00:00+00:00,2,2,2,0,1.56,1.56,1.56,0.76,0.76,0.76,41.1,41.1,41.1,8.82,311.9,3.89,63.68,53.2019378757967,-105.751586774025
Regina,2026-05-04 06:00:00+00:00,2,2,2,0,2.22,2.22,2.22,1.8,1.8,1.8,33.16,33.16,33.16,17.66,346.54,5.91,55.11,50.4502077461615,-104.617125744561
Saskatoon,2026-05-04 06:00:00+00:00,2,2,2,0,1.59,1.59,1.59,2.41,2.41,2.41,39.82,39.82,39.82,14.84,346.22,5.46,56.33,52.1361376913645,-106.662942708646
Swift Current,2026-05-04 06:00:00+00:00,3,3,3,0,2.37,2.37,2.37,2.56,2.56,2.56,43.45,43.45,43.45,13.48,345.68,9.42,43.37,50.2858504122844,-107.816680514048
