station,datetime,AQHI_0,AQHI_1,AQHI_2,AQHI_trend,PM25_0,PM25_1,PM25_2,NO2_0,NO2_1,NO2_2,O3_0,O3_1,O3_2,WS,WD,TEMP,RH,lat,lon
Buffalo Narrows,2026-05-04 11:00:00+00:00,2,2,2,0,6.1,6.1,6.1,0.29,0.29,0.29,33.25,33.25,33.25,13.96,315.37,0.58,67.64,55.8347917730994,-108.40387034522
Estevan,2026-05-04 11:00:00+00:00,2,2,2,0,1.0,1.0,1.0,3.72,3.72,3.72,27.82,27.82,27.82,9.92,280.61,2.63,63.5,49.1323647672702,-102.985002018981
Prince Albert,2026-05-04 11:00:00+00:00,2,2,2,0,0.34,0.34,0.34,0.95,0.95,0.95,33.53,33.53,33.53,8.05,330.05,0.56,62.9,53.2019378757967,-105.751586774025
Regina,2026-05-04 11:00:00+00:00,2,2,2,0,1.48,1.48,1.48,1.86,1.86,1.86,30.07,30.07,30.07,15.17,319.2,3.3,59.79,50.4502077461615,-104.617125744561
Saskatoon,2026-05-04 11:00:00+00:00,2,2,2,0,0.92,0.92,0.92,1.51,1.51,1.51,32.83,32.83,32.83,23.53,350.35,1.47,61.56,52.1361376913645,-106.662942708646
Swift Current,2026-05-04 11:00:00+00:00,2,2,2,0,1.95,1.95,1.95,2.07,2.07,2.07,29.17,29.17,29.17,13.13,306.03,1.27,76.26,50.2858504122844,-107.816680514048
