station,datetime,AQHI_0,AQHI_1,AQHI_2,AQHI_trend,PM25_0,PM25_1,PM25_2,NO2_0,NO2_1,NO2_2,O3_0,O3_1,O3_2,WS,WD,TEMP,RH,lat,lon
Buffalo Narrows,2026-05-01 17:00:00+00:00,3,3,3,0,3.41,3.41,3.41,0.6,0.6,0.6,45.07,45.07,45.07,4.08,188.36,11.37,36.23,55.8347917730994,-108.40387034522
Estevan,2026-05-01 17:00:00+00:00,3,3,3,0,5.91,5.91,5.91,3.79,3.79,3.79,44.14,44.14,44.14,13.58,246.29,13.74,24.46,49.1323647672702,-102.985002018981
Prince Albert,2026-05-01 17:00:00+00:00,3,3,3,0,12.31,12.31,12.31,3.76,3.76,3.76,33.7,33.7,33.7,6.09,141.83,11.1,42.02,53.2019378757967,-105.751586774025
Regina,2026-05-01 17:00:00+00:00,3,3,3,0,4.48,4.48,4.48,2.65,2.65,2.65,43.24,43.24,43.24,14.62,273.49,15.23,24.44,50.4502077461615,-104.617125744561
Saskatoon,2026-05-01 17:00:00+00:00,3,3,3,0,5.25,5.25,5.25,5.48,5.48,5.48,35.42,35.42,35.42,9.66,184.23,15.2,28.4,52.1361376913645,-106.662942708646
Swift Current,2026-05-01 17:00:00+00:00,3,3,3,0,4.32,4.32,4.32,5.76,5.76,5.76,47.75,47.75,47.75,8.17,216.36,17.62,21.4,50.2858504122844,-107.816680514048
