station,datetime,AQHI_0,AQHI_1,AQHI_2,AQHI_trend,PM25_0,PM25_1,PM25_2,NO2_0,NO2_1,NO2_2,O3_0,O3_1,O3_2,WS,WD,TEMP,RH,lat,lon
Buffalo Narrows,2026-05-01 12:00:00+00:00,2,2,2,0,3.1,3.1,3.1,1.01,1.01,1.01,41.99,41.99,41.99,3.23,169.72,3.05,54.28,55.8347917730994,-108.40387034522
Estevan,2026-05-01 12:00:00+00:00,2,2,2,0,9.04,9.04,9.04,11.62,11.62,11.62,9.26,9.26,9.26,2.69,171.34,-0.24,61.73,49.1323647672702,-102.985002018981
Prince Albert,2026-05-01 12:00:00+00:00,2,2,2,0,9.37,9.37,9.37,7.92,7.92,7.92,20.89,20.89,20.89,3.34,102.98,1.16,70.58,53.2019378757967,-105.751586774025
Regina,2026-05-01 12:00:00+00:00,2,2,2,0,5.15,5.15,5.15,10.68,10.68,10.68,21.37,21.37,21.37,6.44,219.06,3.51,49.83,50.4502077461615,-104.617125744561
Saskatoon,2026-05-01 12:00:00+00:00,2,2,2,0,3.77,3.77,3.77,6.2,6.2,6.2,32.48,32.48,32.48,7.5,194.7,5.87,44.35,52.1361376913645,-106.662942708646
Swift Current,2026-05-01 12:00:00+00:00,2,2,2,0,3.25,3.25,3.25,2.36,2.36,2.36,36.66,36.66,36.66,9.16,178.96,4.19,49.8,50.2858504122844,-107.816680514048
