station,datetime,AQHI_0,AQHI_1,AQHI_2,AQHI_trend,PM25_0,PM25_1,PM25_2,NO2_0,NO2_1,NO2_2,O3_0,O3_1,O3_2,WS,WD,TEMP,RH,lat,lon
Buffalo Narrows,2026-05-02 09:00:00+00:00,2,2,2,0,1.05,1.05,1.05,0.46,0.46,0.46,30.01,30.01,30.01,1.97,212.03,0.74,66.15,55.8347917730994,-108.40387034522
Estevan,2026-05-02 09:00:00+00:00,3,3,3,0,7.24,7.24,7.24,22.6,22.6,22.6,15.51,15.51,15.51,5.29,224.06,10.32,34.02,49.1323647672702,-102.985002018981
Prince Albert,2026-05-02 09:00:00+00:00,3,3,3,0,5.29,5.29,5.29,2.39,2.39,2.39,40.12,40.12,40.12,3.35,303.82,5.95,61.77,53.2019378757967,-105.751586774025
Regina,2026-05-02 09:00:00+00:00,2,2,2,0,5.44,5.44,5.44,2.65,2.65,2.65,33.17,33.17,33.17,9.43,330.31,13.04,37.68,50.4502077461615,-104.617125744561
Saskatoon,2026-05-02 09:00:00+00:00,3,3,3,0,4.6,4.6,4.6,2.38,2.38,2.38,42.1,42.1,42.1,15.88,349.06,9.79,51.46,52.1361376913645,-106.662942708646
Swift Current,2026-05-02 09:00:00+00:00,2,2,2,0,4.21,4.21,4.21,5.11,5.11,5.11,26.43,26.43,26.43,4.09,274.29,9.89,55.29,50.2858504122844,-107.816680514048
