station,datetime,AQHI_0,AQHI_1,AQHI_2,AQHI_trend,PM25_0,PM25_1,PM25_2,NO2_0,NO2_1,NO2_2,O3_0,O3_1,O3_2,WS,WD,TEMP,RH,lat,lon
Buffalo Narrows,2026-04-24 03:00:00+00:00,2,2,2,0,1.44,1.44,1.44,0.09,0.09,0.09,41.73,41.73,41.73,23.67,348.59,-5.69,81.49,55.8347917730994,-108.40387034522
Estevan,2026-04-24 03:00:00+00:00,2,2,2,0,2.85,2.85,2.85,2.61,2.61,2.61,30.67,30.67,30.67,19.44,276.85,1.92,57.53,49.1323647672702,-102.985002018981
Prince Albert,2026-04-24 03:00:00+00:00,2,2,2,0,1.37,1.37,1.37,1.54,1.54,1.54,39.67,39.67,39.67,8.63,330.33,-4.78,77.25,53.2019378757967,-105.751586774025
Regina,2026-04-24 03:00:00+00:00,2,2,2,0,3.41,3.41,3.41,2.7,2.7,2.7,26.24,26.24,26.24,18.37,297.32,0.64,66.45,50.4502077461615,-104.617125744561
Saskatoon,2026-04-24 03:00:00+00:00,2,2,2,0,1.3,1.3,1.3,2.21,2.21,2.21,35.88,35.88,35.88,16.51,314.5,-2.04,59.19,52.1361376913645,-106.662942708646
Swift Current,2026-04-24 03:00:00+00:00,2,2,2,0,1.03,1.03,1.03,2.03,2.03,2.03,34.85,34.85,34.85,25.64,302.35,-0.92,83.17,50.2858504122844,-107.816680514048
