station,datetime,AQHI_0,AQHI_1,AQHI_2,AQHI_trend,PM25_0,PM25_1,PM25_2,NO2_0,NO2_1,NO2_2,O3_0,O3_1,O3_2,WS,WD,TEMP,RH,lat,lon
Buffalo Narrows,2026-04-27 00:00:00+00:00,2,2,2,0,1.28,1.28,1.28,0.35,0.35,0.35,34.24,34.24,34.24,8.81,293.43,-1.43,70.78,55.8347917730994,-108.40387034522
Estevan,2026-04-27 00:00:00+00:00,3,3,3,0,6.04,6.04,6.04,3.02,3.02,3.02,37.92,37.92,37.92,11.71,329.62,2.7,52.24,49.1323647672702,-102.985002018981
Prince Albert,2026-04-27 00:00:00+00:00,2,2,2,0,1.06,1.06,1.06,1.25,1.25,1.25,35.24,35.24,35.24,7.05,323.3,0.68,62.94,53.2019378757967,-105.751586774025
Regina,2026-04-27 00:00:00+00:00,2,2,2,0,3.94,3.94,3.94,2.05,2.05,2.05,31.47,31.47,31.47,12.18,311.83,-0.07,50.35,50.4502077461615,-104.617125744561
Saskatoon,2026-04-27 00:00:00+00:00,2,2,2,0,1.8,1.8,1.8,1.37,1.37,1.37,34.99,34.99,34.99,14.22,291.69,1.09,46.91,52.1361376913645,-106.662942708646
Swift Current,2026-04-27 00:00:00+00:00,2,2,2,0,3.46,3.46,3.46,3.67,3.67,3.67,35.46,35.46,35.46,11.53,307.54,-2.65,66.45,50.2858504122844,-107.816680514048
