station,datetime,AQHI_0,AQHI_1,AQHI_2,AQHI_trend,PM25_0,PM25_1,PM25_2,NO2_0,NO2_1,NO2_2,O3_0,O3_1,O3_2,WS,WD,TEMP,RH,lat,lon
Buffalo Narrows,2026-05-02 14:00:00+00:00,2,2,2,0,1.12,1.12,1.12,0.73,0.73,0.73,36.77,36.77,36.77,2.26,239.48,2.54,54.57,55.8347917730994,-108.40387034522
Estevan,2026-05-02 14:00:00+00:00,2,2,2,0,6.14,6.14,6.14,4.21,4.21,4.21,28.06,28.06,28.06,11.54,283.36,10.85,46.22,49.1323647672702,-102.985002018981
Prince Albert,2026-05-02 14:00:00+00:00,2,2,2,0,4.79,4.79,4.79,1.87,1.87,1.87,38.2,38.2,38.2,3.22,316.04,6.66,63.4,53.2019378757967,-105.751586774025
Regina,2026-05-02 14:00:00+00:00,2,2,2,0,5.92,5.92,5.92,2.45,2.45,2.45,29.57,29.57,29.57,14.41,338.06,7.86,58.0,50.4502077461615,-104.617125744561
Saskatoon,2026-05-02 14:00:00+00:00,2,2,2,0,7.26,7.26,7.26,7.62,7.62,7.62,27.09,27.09,27.09,7.15,339.43,7.41,64.23,52.1361376913645,-106.662942708646
Swift Current,2026-05-02 14:00:00+00:00,2,2,2,0,4.61,4.61,4.61,6.67,6.67,6.67,30.87,30.87,30.87,7.46,333.4,9.87,61.74,50.2858504122844,-107.816680514048
