station,datetime,AQHI_0,AQHI_1,AQHI_2,AQHI_trend,PM25_0,PM25_1,PM25_2,NO2_0,NO2_1,NO2_2,O3_0,O3_1,O3_2,WS,WD,TEMP,RH,lat,lon
Buffalo Narrows,2026-04-27 10:00:00+00:00,2,2,2,0,0.65,0.65,0.65,0.23,0.23,0.23,33.28,33.28,33.28,3.72,302.71,-5.81,75.63,55.8347917730994,-108.40387034522
Estevan,2026-04-27 10:00:00+00:00,2,2,2,0,3.06,3.06,3.06,3.47,3.47,3.47,24.18,24.18,24.18,6.77,333.25,-1.53,62.78,49.1323647672702,-102.985002018981
Prince Albert,2026-04-27 10:00:00+00:00,2,2,2,0,1.53,1.53,1.53,6.94,6.94,6.94,26.6,26.6,26.6,3.15,267.68,-3.25,74.54,53.2019378757967,-105.751586774025
Regina,2026-04-27 10:00:00+00:00,2,2,2,0,2.83,2.83,2.83,8.22,8.22,8.22,17.92,17.92,17.92,5.5,307.31,-3.82,62.86,50.4502077461615,-104.617125744561
Saskatoon,2026-04-27 10:00:00+00:00,2,2,2,0,2.68,2.68,2.68,3.53,3.53,3.53,30.59,30.59,30.59,6.74,271.14,-1.63,64.25,52.1361376913645,-106.662942708646
Swift Current,2026-04-27 10:00:00+00:00,2,2,2,0,3.03,3.03,3.03,3.99,3.99,3.99,29.42,29.42,29.42,6.36,290.3,-3.85,69.3,50.2858504122844,-107.816680514048
