station,datetime,AQHI_0,AQHI_1,AQHI_2,AQHI_trend,PM25_0,PM25_1,PM25_2,NO2_0,NO2_1,NO2_2,O3_0,O3_1,O3_2,WS,WD,TEMP,RH,lat,lon
Buffalo Narrows,2026-04-28 18:00:00+00:00,2,2,2,0,2.9,2.9,2.9,0.4,0.4,0.4,34.17,34.17,34.17,6.11,357.11,1.88,56.27,55.8347917730994,-108.40387034522
Estevan,2026-04-28 18:00:00+00:00,2,2,2,0,5.6,5.6,5.6,3.88,3.88,3.88,31.4,31.4,31.4,4.54,310.11,3.91,40.92,49.1323647672702,-102.985002018981
Prince Albert,2026-04-28 18:00:00+00:00,3,3,3,0,5.76,5.76,5.76,3.92,3.92,3.92,37.33,37.33,37.33,4.19,263.26,5.0,45.05,53.2019378757967,-105.751586774025
Regina,2026-04-28 18:00:00+00:00,2,2,2,0,5.33,5.33,5.33,4.9,4.9,4.9,30.2,30.2,30.2,6.12,163.45,3.1,42.97,50.4502077461615,-104.617125744561
Saskatoon,2026-04-28 18:00:00+00:00,2,2,2,0,6.32,6.32,6.32,5.63,5.63,5.63,30.2,30.2,30.2,4.84,40.29,4.76,42.2,52.1361376913645,-106.662942708646
Swift Current,2026-04-28 18:00:00+00:00,2,2,2,0,4.49,4.49,4.49,4.2,4.2,4.2,31.83,31.83,31.83,6.82,139.02,5.73,49.65,50.2858504122844,-107.816680514048
