station,datetime,AQHI_0,AQHI_1,AQHI_2,AQHI_trend,PM25_0,PM25_1,PM25_2,NO2_0,NO2_1,NO2_2,O3_0,O3_1,O3_2,WS,WD,TEMP,RH,lat,lon
Buffalo Narrows,2026-04-29 12:00:00+00:00,1,1,1,0,3.03,3.03,3.03,0.89,0.89,0.89,22.91,22.91,22.91,2.26,120.2,-6.34,75.92,55.8347917730994,-108.40387034522
Estevan,2026-04-29 12:00:00+00:00,2,2,2,0,5.24,5.24,5.24,8.7,8.7,8.7,19.85,19.85,19.85,7.97,355.73,-2.91,65.22,49.1323647672702,-102.985002018981
Prince Albert,2026-04-29 12:00:00+00:00,2,2,2,0,3.94,3.94,3.94,4.62,4.62,4.62,34.85,34.85,34.85,3.94,291.19,2.1,55.68,53.2019378757967,-105.751586774025
Regina,2026-04-29 12:00:00+00:00,2,2,2,0,5.49,5.49,5.49,19.26,19.26,19.26,7.41,7.41,7.41,4.01,250.02,-2.76,68.22,50.4502077461615,-104.617125744561
Saskatoon,2026-04-29 12:00:00+00:00,2,2,2,0,4.75,4.75,4.75,8.36,8.36,8.36,20.32,20.32,20.32,7.76,215.21,0.93,61.32,52.1361376913645,-106.662942708646
Swift Current,2026-04-29 12:00:00+00:00,3,3,3,0,5.93,5.93,5.93,29.73,29.73,29.73,3.61,3.61,3.61,3.54,91.21,-2.51,79.38,50.2858504122844,-107.816680514048
