station,datetime,AQHI_0,AQHI_1,AQHI_2,AQHI_trend,PM25_0,PM25_1,PM25_2,NO2_0,NO2_1,NO2_2,O3_0,O3_1,O3_2,WS,WD,TEMP,RH,lat,lon
Buffalo Narrows,2026-04-26 05:00:00+00:00,2,2,2,0,0.62,0.62,0.62,0.06,0.06,0.06,32.01,32.01,32.01,17.35,350.6,-5.25,80.14,55.8347917730994,-108.40387034522
Estevan,2026-04-26 05:00:00+00:00,2,2,2,0,2.85,2.85,2.85,4.7,4.7,4.7,24.07,24.07,24.07,6.0,252.52,-2.98,58.5,49.1323647672702,-102.985002018981
Prince Albert,2026-04-26 05:00:00+00:00,2,2,2,0,1.87,1.87,1.87,2.31,2.31,2.31,35.82,35.82,35.82,3.76,352.68,-2.37,83.1,53.2019378757967,-105.751586774025
Regina,2026-04-26 05:00:00+00:00,2,2,2,0,2.55,2.55,2.55,3.96,3.96,3.96,24.94,24.94,24.94,9.42,240.83,-2.44,67.45,50.4502077461615,-104.617125744561
Saskatoon,2026-04-26 05:00:00+00:00,2,2,2,0,0.84,0.84,0.84,3.04,3.04,3.04,30.52,30.52,30.52,9.03,271.63,-1.89,70.26,52.1361376913645,-106.662942708646
Swift Current,2026-04-26 05:00:00+00:00,3,3,3,0,2.49,2.49,2.49,11.64,11.64,11.64,27.22,27.22,27.22,9.68,265.78,-5.36,92.62,50.2858504122844,-107.816680514048
