station,datetime,AQHI_0,AQHI_1,AQHI_2,AQHI_trend,PM25_0,PM25_1,PM25_2,NO2_0,NO2_1,NO2_2,O3_0,O3_1,O3_2,WS,WD,TEMP,RH,lat,lon
Buffalo Narrows,2026-04-26 09:00:00+00:00,2,2,2,0,1.5,1.5,1.5,0.05,0.05,0.05,33.59,33.59,33.59,17.18,342.55,-5.87,78.52,55.8347917730994,-108.40387034522
Estevan,2026-04-26 09:00:00+00:00,1,1,1,0,3.46,3.46,3.46,5.05,5.05,5.05,16.98,16.98,16.98,5.73,252.75,-5.9,68.42,49.1323647672702,-102.985002018981
Prince Albert,2026-04-26 09:00:00+00:00,2,2,2,0,2.5,2.5,2.5,2.86,2.86,2.86,34.06,34.06,34.06,2.23,337.92,-3.82,79.67,53.2019378757967,-105.751586774025
Regina,2026-04-26 09:00:00+00:00,2,2,2,0,3.08,3.08,3.08,5.19,5.19,5.19,24.36,24.36,24.36,10.9,252.98,-4.79,77.74,50.4502077461615,-104.617125744561
Saskatoon,2026-04-26 09:00:00+00:00,2,2,2,0,0.95,0.95,0.95,3.74,3.74,3.74,27.82,27.82,27.82,8.0,265.2,-5.18,78.97,52.1361376913645,-106.662942708646
Swift Current,2026-04-26 09:00:00+00:00,3,3,3,0,3.27,3.27,3.27,11.29,11.29,11.29,27.94,27.94,27.94,9.32,270.5,-6.08,95.57,50.2858504122844,-107.816680514048
