station,datetime,AQHI_0,AQHI_1,AQHI_2,AQHI_trend,PM25_0,PM25_1,PM25_2,NO2_0,NO2_1,NO2_2,O3_0,O3_1,O3_2,WS,WD,TEMP,RH,lat,lon
Buffalo Narrows,2026-05-01 14:00:00+00:00,2,2,2,0,2.97,2.97,2.97,0.22,0.22,0.22,42.99,42.99,42.99,7.73,171.0,5.67,49.19,55.8347917730994,-108.40387034522
Estevan,2026-05-01 14:00:00+00:00,2,2,2,0,8.05,8.05,8.05,9.63,9.63,9.63,17.4,17.4,17.4,3.28,156.04,2.5,58.37,49.1323647672702,-102.985002018981
Prince Albert,2026-05-01 14:00:00+00:00,2,2,2,0,9.45,9.45,9.45,4.45,4.45,4.45,29.19,29.19,29.19,5.13,86.91,2.6,67.68,53.2019378757967,-105.751586774025
Regina,2026-05-01 14:00:00+00:00,2,2,2,0,6.86,6.86,6.86,6.1,6.1,6.1,27.67,27.67,27.67,10.4,247.95,5.74,44.18,50.4502077461615,-104.617125744561
Saskatoon,2026-05-01 14:00:00+00:00,2,2,2,0,5.32,5.32,5.32,7.52,7.52,7.52,28.18,28.18,28.18,8.57,189.7,5.38,47.1,52.1361376913645,-106.662942708646
Swift Current,2026-05-01 14:00:00+00:00,2,2,2,0,4.01,4.01,4.01,4.61,4.61,4.61,33.02,33.02,33.02,5.65,228.24,6.62,47.11,50.2858504122844,-107.816680514048
