station,datetime,AQHI_0,AQHI_1,AQHI_2,AQHI_trend,PM25_0,PM25_1,PM25_2,NO2_0,NO2_1,NO2_2,O3_0,O3_1,O3_2,WS,WD,TEMP,RH,lat,lon
Buffalo Narrows,2026-04-30 23:00:00+00:00,3,3,3,0,2.9,2.9,2.9,0.53,0.53,0.53,51.25,51.25,51.25,6.83,1.71,11.89,33.27,55.8347917730994,-108.40387034522
Estevan,2026-04-30 23:00:00+00:00,3,3,3,0,4.21,4.21,4.21,1.97,1.97,1.97,41.47,41.47,41.47,11.04,315.82,11.29,27.07,49.1323647672702,-102.985002018981
Prince Albert,2026-04-30 23:00:00+00:00,3,3,3,0,9.53,9.53,9.53,2.51,2.51,2.51,50.16,50.16,50.16,10.12,271.83,17.14,23.8,53.2019378757967,-105.751586774025
Regina,2026-04-30 23:00:00+00:00,3,3,3,0,4.9,4.9,4.9,1.53,1.53,1.53,44.8,44.8,44.8,12.83,346.74,13.75,24.54,50.4502077461615,-104.617125744561
Saskatoon,2026-04-30 23:00:00+00:00,3,3,3,0,5.33,5.33,5.33,1.21,1.21,1.21,49.09,49.09,49.09,10.28,240.83,17.69,18.69,52.1361376913645,-106.662942708646
Swift Current,2026-04-30 23:00:00+00:00,3,3,3,0,3.77,3.77,3.77,3.14,3.14,3.14,49.2,49.2,49.2,6.19,328.53,15.12,18.95,50.2858504122844,-107.816680514048
