station,datetime,AQHI_0,AQHI_1,AQHI_2,AQHI_trend,PM25_0,PM25_1,PM25_2,NO2_0,NO2_1,NO2_2,O3_0,O3_1,O3_2,WS,WD,TEMP,RH,lat,lon
Buffalo Narrows,2026-04-27 06:00:00+00:00,2,2,2,0,1.2,1.2,1.2,0.05,0.05,0.05,34.3,34.3,34.3,6.82,321.92,-5.03,77.66,55.8347917730994,-108.40387034522
Estevan,2026-04-27 06:00:00+00:00,2,2,2,0,7.61,7.61,7.61,4.79,4.79,4.79,28.46,28.46,28.46,6.02,337.06,-1.48,73.08,49.1323647672702,-102.985002018981
Prince Albert,2026-04-27 06:00:00+00:00,2,2,2,0,0.77,0.77,0.77,1.73,1.73,1.73,33.31,33.31,33.31,4.54,297.9,-0.96,65.61,53.2019378757967,-105.751586774025
Regina,2026-04-27 06:00:00+00:00,2,2,2,0,2.57,2.57,2.57,3.39,3.39,3.39,26.81,26.81,26.81,8.62,305.47,-1.24,53.65,50.4502077461615,-104.617125744561
Saskatoon,2026-04-27 06:00:00+00:00,2,2,2,0,3.07,3.07,3.07,4.75,4.75,4.75,30.42,30.42,30.42,7.61,250.62,-0.92,63.84,52.1361376913645,-106.662942708646
Swift Current,2026-04-27 06:00:00+00:00,2,2,2,0,3.08,3.08,3.08,6.52,6.52,6.52,30.59,30.59,30.59,5.75,303.73,-3.5,66.67,50.2858504122844,-107.816680514048
