station,datetime,AQHI_0,AQHI_1,AQHI_2,AQHI_trend,PM25_0,PM25_1,PM25_2,NO2_0,NO2_1,NO2_2,O3_0,O3_1,O3_2,WS,WD,TEMP,RH,lat,lon
Buffalo Narrows,2026-04-26 14:00:00+00:00,2,2,2,0,1.52,1.52,1.52,0.16,0.16,0.16,33.76,33.76,33.76,15.49,345.6,-6.32,78.56,55.8347917730994,-108.40387034522
Estevan,2026-04-26 14:00:00+00:00,2,2,2,0,3.75,3.75,3.75,2.58,2.58,2.58,27.98,27.98,27.98,10.56,245.53,-3.52,66.12,49.1323647672702,-102.985002018981
Prince Albert,2026-04-26 14:00:00+00:00,2,2,2,0,2.2,2.2,2.2,3.52,3.52,3.52,31.28,31.28,31.28,2.3,80.73,-3.97,78.68,53.2019378757967,-105.751586774025
Regina,2026-04-26 14:00:00+00:00,2,2,2,0,2.98,2.98,2.98,2.71,2.71,2.71,27.63,27.63,27.63,14.24,261.63,-4.6,73.76,50.4502077461615,-104.617125744561
Saskatoon,2026-04-26 14:00:00+00:00,2,2,2,0,1.51,1.51,1.51,4.3,4.3,4.3,27.45,27.45,27.45,9.33,267.24,-3.38,75.03,52.1361376913645,-106.662942708646
Swift Current,2026-04-26 14:00:00+00:00,3,3,3,0,3.88,3.88,3.88,9.42,9.42,9.42,31.55,31.55,31.55,11.13,260.07,-6.93,96.04,50.2858504122844,-107.816680514048
