station,datetime,AQHI_0,AQHI_1,AQHI_2,AQHI_trend,PM25_0,PM25_1,PM25_2,NO2_0,NO2_1,NO2_2,O3_0,O3_1,O3_2,WS,WD,TEMP,RH,lat,lon
Buffalo Narrows,2026-04-28 02:00:00+00:00,2,2,2,0,0.0,0.0,0.0,0.03,0.03,0.03,35.79,35.79,35.79,5.51,351.2,-1.74,53.17,55.8347917730994,-108.40387034522
Estevan,2026-04-28 02:00:00+00:00,2,2,2,0,5.56,5.56,5.56,2.89,2.89,2.89,35.47,35.47,35.47,11.06,319.67,3.53,38.08,49.1323647672702,-102.985002018981
Prince Albert,2026-04-28 02:00:00+00:00,3,3,3,0,6.41,6.41,6.41,3.14,3.14,3.14,37.94,37.94,37.94,6.46,229.84,1.78,53.91,53.2019378757967,-105.751586774025
Regina,2026-04-28 02:00:00+00:00,2,2,2,0,4.46,4.46,4.46,4.28,4.28,4.28,29.62,29.62,29.62,7.46,59.03,1.06,47.65,50.4502077461615,-104.617125744561
Saskatoon,2026-04-28 02:00:00+00:00,2,2,2,0,4.39,4.39,4.39,3.19,3.19,3.19,36.2,36.2,36.2,7.57,349.0,2.72,46.72,52.1361376913645,-106.662942708646
Swift Current,2026-04-28 02:00:00+00:00,2,2,2,0,3.47,3.47,3.47,2.55,2.55,2.55,35.78,35.78,35.78,3.17,312.77,1.73,44.99,50.2858504122844,-107.816680514048
