station,datetime,AQHI_0,AQHI_1,AQHI_2,AQHI_trend,PM25_0,PM25_1,PM25_2,NO2_0,NO2_1,NO2_2,O3_0,O3_1,O3_2,WS,WD,TEMP,RH,lat,lon
Buffalo Narrows,2026-04-27 22:00:00+00:00,2,2,2,0,1.11,1.11,1.11,0.26,0.26,0.26,35.77,35.77,35.77,9.67,16.03,-1.71,61.65,55.8347917730994,-108.40387034522
Estevan,2026-04-27 22:00:00+00:00,2,2,2,0,3.94,3.94,3.94,1.99,1.99,1.99,34.17,34.17,34.17,12.22,313.33,5.38,33.54,49.1323647672702,-102.985002018981
Prince Albert,2026-04-27 22:00:00+00:00,3,3,3,0,4.74,4.74,4.74,4.13,4.13,4.13,37.6,37.6,37.6,8.03,262.56,2.22,50.16,53.2019378757967,-105.751586774025
Regina,2026-04-27 22:00:00+00:00,2,2,2,0,4.24,4.24,4.24,2.27,2.27,2.27,32.28,32.28,32.28,12.04,312.43,1.19,44.56,50.4502077461615,-104.617125744561
Saskatoon,2026-04-27 22:00:00+00:00,2,2,2,0,3.89,3.89,3.89,2.56,2.56,2.56,36.74,36.74,36.74,8.95,217.24,2.23,44.42,52.1361376913645,-106.662942708646
Swift Current,2026-04-27 22:00:00+00:00,2,2,2,0,3.44,3.44,3.44,3.93,3.93,3.93,33.69,33.69,33.69,6.4,227.53,0.72,48.56,50.2858504122844,-107.816680514048
