station,datetime,AQHI_0,AQHI_1,AQHI_2,AQHI_trend,PM25_0,PM25_1,PM25_2,NO2_0,NO2_1,NO2_2,O3_0,O3_1,O3_2,WS,WD,TEMP,RH,lat,lon
Buffalo Narrows,2026-04-30 07:00:00+00:00,2,2,2,0,2.48,2.48,2.48,0.27,0.27,0.27,42.18,42.18,42.18,7.26,189.81,3.61,48.3,55.8347917730994,-108.40387034522
Estevan,2026-04-30 07:00:00+00:00,2,2,2,0,4.08,4.08,4.08,3.78,3.78,3.78,30.72,30.72,30.72,10.75,345.03,2.8,54.47,49.1323647672702,-102.985002018981
Prince Albert,2026-04-30 07:00:00+00:00,2,2,2,0,8.58,8.58,8.58,11.32,11.32,11.32,15.84,15.84,15.84,2.45,33.8,-0.3,72.35,53.2019378757967,-105.751586774025
Regina,2026-04-30 07:00:00+00:00,2,2,2,0,4.7,4.7,4.7,12.04,12.04,12.04,22.64,22.64,22.64,6.35,49.53,1.28,55.64,50.4502077461615,-104.617125744561
Saskatoon,2026-04-30 07:00:00+00:00,3,3,3,0,7.4,7.4,7.4,12.67,12.67,12.67,23.81,23.81,23.81,4.48,169.45,3.86,59.42,52.1361376913645,-106.662942708646
Swift Current,2026-04-30 07:00:00+00:00,2,2,2,0,4.62,4.62,4.62,4.9,4.9,4.9,20.6,20.6,20.6,2.81,128.68,1.3,71.48,50.2858504122844,-107.816680514048
