station,datetime,AQHI_0,AQHI_1,AQHI_2,AQHI_trend,PM25_0,PM25_1,PM25_2,NO2_0,NO2_1,NO2_2,O3_0,O3_1,O3_2,WS,WD,TEMP,RH,lat,lon
Buffalo Narrows,2026-04-30 11:00:00+00:00,2,2,2,0,2.53,2.53,2.53,0.32,0.32,0.32,40.27,40.27,40.27,8.05,194.67,1.75,52.99,55.8347917730994,-108.40387034522
Estevan,2026-04-30 11:00:00+00:00,1,1,1,0,4.79,4.79,4.79,5.18,5.18,5.18,14.6,14.6,14.6,7.47,351.33,-3.05,75.04,49.1323647672702,-102.985002018981
Prince Albert,2026-04-30 11:00:00+00:00,2,2,2,0,7.7,7.7,7.7,17.34,17.34,17.34,6.07,6.07,6.07,1.5,309.6,-2.23,78.56,53.2019378757967,-105.751586774025
Regina,2026-04-30 11:00:00+00:00,3,3,3,0,5.44,5.44,5.44,24.39,24.39,24.39,4.92,4.92,4.92,2.83,262.49,-1.81,66.16,50.4502077461615,-104.617125744561
Saskatoon,2026-04-30 11:00:00+00:00,2,2,2,0,4.7,4.7,4.7,7.11,7.11,7.11,19.33,19.33,19.33,6.71,199.81,0.52,71.93,52.1361376913645,-106.662942708646
Swift Current,2026-04-30 11:00:00+00:00,2,2,2,0,3.98,3.98,3.98,10.19,10.19,10.19,14.13,14.13,14.13,2.47,21.43,-0.67,77.47,50.2858504122844,-107.816680514048
