station,datetime,AQHI_0,AQHI_1,AQHI_2,AQHI_trend,PM25_0,PM25_1,PM25_2,NO2_0,NO2_1,NO2_2,O3_0,O3_1,O3_2,WS,WD,TEMP,RH,lat,lon
Buffalo Narrows,2026-05-01 04:00:00+00:00,3,3,3,0,3.18,3.18,3.18,0.49,0.49,0.49,45.87,45.87,45.87,1.21,140.05,7.16,45.44,55.8347917730994,-108.40387034522
Estevan,2026-05-01 04:00:00+00:00,3,3,3,0,18.82,18.82,18.82,11.52,11.52,11.52,24.2,24.2,24.2,2.63,259.33,8.19,34.33,49.1323647672702,-102.985002018981
Prince Albert,2026-05-01 04:00:00+00:00,5,5,5,0,36.36,36.36,36.36,22.25,22.25,22.25,22.6,22.6,22.6,1.57,301.77,10.61,40.51,53.2019378757967,-105.751586774025
Regina,2026-05-01 04:00:00+00:00,4,4,4,0,20.26,20.26,20.26,27.52,27.52,27.52,15.39,15.39,15.39,5.2,206.94,11.21,31.48,50.4502077461615,-104.617125744561
Saskatoon,2026-05-01 04:00:00+00:00,3,3,3,0,8.51,8.51,8.51,9.82,9.82,9.82,37.31,37.31,37.31,6.0,200.27,13.53,27.95,52.1361376913645,-106.662942708646
Swift Current,2026-05-01 04:00:00+00:00,3,3,3,0,5.7,5.7,5.7,9.78,9.78,9.78,40.74,40.74,40.74,4.72,93.72,10.75,27.73,50.2858504122844,-107.816680514048
