station,datetime,AQHI_0,AQHI_1,AQHI_2,AQHI_trend,PM25_0,PM25_1,PM25_2,NO2_0,NO2_1,NO2_2,O3_0,O3_1,O3_2,WS,WD,TEMP,RH,lat,lon
Buffalo Narrows,2026-04-26 08:00:00+00:00,2,2,2,0,1.56,1.56,1.56,0.06,0.06,0.06,33.27,33.27,33.27,16.78,345.13,-5.42,79.22,55.8347917730994,-108.40387034522
Estevan,2026-04-26 08:00:00+00:00,2,2,2,0,2.92,2.92,2.92,6.47,6.47,6.47,17.83,17.83,17.83,3.68,238.78,-4.85,63.33,49.1323647672702,-102.985002018981
Prince Albert,2026-04-26 08:00:00+00:00,2,2,2,0,2.07,2.07,2.07,3.2,3.2,3.2,33.53,33.53,33.53,3.64,36.62,-3.47,80.94,53.2019378757967,-105.751586774025
Regina,2026-04-26 08:00:00+00:00,2,2,2,0,3.33,3.33,3.33,3.17,3.17,3.17,26.44,26.44,26.44,11.58,245.9,-4.17,76.85,50.4502077461615,-104.617125744561
Saskatoon,2026-04-26 08:00:00+00:00,2,2,2,0,0.94,0.94,0.94,4.28,4.28,4.28,27.35,27.35,27.35,6.95,262.76,-4.66,78.07,52.1361376913645,-106.662942708646
Swift Current,2026-04-26 08:00:00+00:00,3,3,3,0,3.37,3.37,3.37,13.7,13.7,13.7,26.76,26.76,26.76,8.05,258.98,-5.77,94.12,50.2858504122844,-107.816680514048
