station,datetime,AQHI_0,AQHI_1,AQHI_2,AQHI_trend,PM25_0,PM25_1,PM25_2,NO2_0,NO2_1,NO2_2,O3_0,O3_1,O3_2,WS,WD,TEMP,RH,lat,lon
Buffalo Narrows,2026-05-01 22:00:00+00:00,3,3,3,0,4.08,4.08,4.08,0.6,0.6,0.6,51.51,51.51,51.51,6.92,2.02,8.98,44.98,55.8347917730994,-108.40387034522
Estevan,2026-05-01 22:00:00+00:00,3,3,3,0,6.05,6.05,6.05,2.2,2.2,2.2,48.77,48.77,48.77,13.51,249.68,19.12,17.56,49.1323647672702,-102.985002018981
Prince Albert,2026-05-01 22:00:00+00:00,3,3,3,0,13.34,13.34,13.34,2.59,2.59,2.59,45.63,45.63,45.63,10.19,101.21,14.11,45.56,53.2019378757967,-105.751586774025
Regina,2026-05-01 22:00:00+00:00,3,3,3,0,4.68,4.68,4.68,4.84,4.84,4.84,48.86,48.86,48.86,13.9,230.96,20.43,14.85,50.4502077461615,-104.617125744561
Saskatoon,2026-05-01 22:00:00+00:00,4,4,4,0,9.0,9.0,9.0,3.18,3.18,3.18,55.15,55.15,55.15,13.94,202.3,23.78,15.05,52.1361376913645,-106.662942708646
Swift Current,2026-05-01 22:00:00+00:00,3,3,3,0,4.54,4.54,4.54,2.28,2.28,2.28,54.34,54.34,54.34,9.68,229.71,22.58,14.12,50.2858504122844,-107.816680514048
