station,datetime,AQHI_0,AQHI_1,AQHI_2,AQHI_trend,PM25_0,PM25_1,PM25_2,NO2_0,NO2_1,NO2_2,O3_0,O3_1,O3_2,WS,WD,TEMP,RH,lat,lon
Buffalo Narrows,2026-04-24 21:00:00+00:00,2,2,2,0,1.34,1.34,1.34,0.23,0.23,0.23,35.83,35.83,35.83,27.27,344.87,-5.17,79.94,55.8347917730994,-108.40387034522
Estevan,2026-04-24 21:00:00+00:00,2,2,2,0,2.47,2.47,2.47,1.23,1.23,1.23,39.12,39.12,39.12,33.57,248.72,-1.34,47.89,49.1323647672702,-102.985002018981
Prince Albert,2026-04-24 21:00:00+00:00,2,2,2,0,1.46,1.46,1.46,1.55,1.55,1.55,37.9,37.9,37.9,13.25,332.74,-4.24,71.47,53.2019378757967,-105.751586774025
Regina,2026-04-24 21:00:00+00:00,2,2,2,0,1.59,1.59,1.59,2.13,2.13,2.13,35.12,35.12,35.12,22.01,279.03,-4.01,69.09,50.4502077461615,-104.617125744561
Saskatoon,2026-04-24 21:00:00+00:00,2,2,2,0,1.71,1.71,1.71,2.03,2.03,2.03,37.58,37.58,37.58,19.4,310.36,-5.34,82.0,52.1361376913645,-106.662942708646
Swift Current,2026-04-24 21:00:00+00:00,3,3,3,0,2.44,2.44,2.44,3.51,3.51,3.51,42.55,42.55,42.55,27.59,303.94,-5.61,83.27,50.2858504122844,-107.816680514048
