station,datetime,AQHI_0,AQHI_1,AQHI_2,AQHI_trend,PM25_0,PM25_1,PM25_2,NO2_0,NO2_1,NO2_2,O3_0,O3_1,O3_2,WS,WD,TEMP,RH,lat,lon
Buffalo Narrows,2026-05-04 10:00:00+00:00,2,2,2,0,5.93,5.93,5.93,0.28,0.28,0.28,32.58,32.58,32.58,12.67,323.8,0.79,69.15,55.8347917730994,-108.40387034522
Estevan,2026-05-04 10:00:00+00:00,2,2,2,0,0.84,0.84,0.84,3.6,3.6,3.6,31.0,31.0,31.0,12.35,296.63,2.69,61.33,49.1323647672702,-102.985002018981
Prince Albert,2026-05-04 10:00:00+00:00,2,2,2,0,0.42,0.42,0.42,0.62,0.62,0.62,33.7,33.7,33.7,9.58,328.5,0.64,66.04,53.2019378757967,-105.751586774025
Regina,2026-05-04 10:00:00+00:00,2,2,2,0,1.29,1.29,1.29,1.65,1.65,1.65,29.02,29.02,29.02,13.67,318.59,3.13,61.1,50.4502077461615,-104.617125744561
Saskatoon,2026-05-04 10:00:00+00:00,2,2,2,0,0.94,0.94,0.94,1.67,1.67,1.67,33.41,33.41,33.41,22.03,347.84,2.25,65.66,52.1361376913645,-106.662942708646
Swift Current,2026-05-04 10:00:00+00:00,2,2,2,0,1.82,1.82,1.82,1.78,1.78,1.78,33.6,33.6,33.6,14.49,294.68,2.7,69.16,50.2858504122844,-107.816680514048
