station,datetime,AQHI_0,AQHI_1,AQHI_2,AQHI_trend,PM25_0,PM25_1,PM25_2,NO2_0,NO2_1,NO2_2,O3_0,O3_1,O3_2,WS,WD,TEMP,RH,lat,lon
Buffalo Narrows,2026-04-28 23:00:00+00:00,2,2,2,0,2.72,2.72,2.72,0.32,0.32,0.32,37.05,37.05,37.05,9.93,356.05,1.96,59.63,55.8347917730994,-108.40387034522
Estevan,2026-04-28 23:00:00+00:00,2,2,2,0,5.99,5.99,5.99,3.13,3.13,3.13,36.82,36.82,36.82,6.78,317.63,8.17,31.48,49.1323647672702,-102.985002018981
Prince Albert,2026-04-28 23:00:00+00:00,3,3,3,0,5.02,5.02,5.02,1.92,1.92,1.92,43.32,43.32,43.32,7.24,326.14,6.23,35.77,53.2019378757967,-105.751586774025
Regina,2026-04-28 23:00:00+00:00,3,3,3,0,7.14,7.14,7.14,4.79,4.79,4.79,37.17,37.17,37.17,10.65,13.51,6.31,36.96,50.4502077461615,-104.617125744561
Saskatoon,2026-04-28 23:00:00+00:00,3,3,3,0,4.59,4.59,4.59,3.35,3.35,3.35,39.2,39.2,39.2,6.58,351.43,6.54,36.53,52.1361376913645,-106.662942708646
Swift Current,2026-04-28 23:00:00+00:00,3,3,3,0,4.42,4.42,4.42,4.58,4.58,4.58,37.64,37.64,37.64,8.39,339.52,9.79,35.12,50.2858504122844,-107.816680514048
