station,datetime,AQHI_0,AQHI_1,AQHI_2,AQHI_trend,PM25_0,PM25_1,PM25_2,NO2_0,NO2_1,NO2_2,O3_0,O3_1,O3_2,WS,WD,TEMP,RH,lat,lon
Buffalo Narrows,2026-04-30 05:00:00+00:00,2,2,2,0,2.4,2.4,2.4,0.36,0.36,0.36,42.75,42.75,42.75,7.6,179.19,4.8,43.94,55.8347917730994,-108.40387034522
Estevan,2026-04-30 05:00:00+00:00,2,2,2,0,4.63,4.63,4.63,6.23,6.23,6.23,28.76,28.76,28.76,6.36,269.11,4.77,47.07,49.1323647672702,-102.985002018981
Prince Albert,2026-04-30 05:00:00+00:00,3,3,3,0,14.43,14.43,14.43,13.68,13.68,13.68,22.25,22.25,22.25,2.0,298.75,3.07,58.87,53.2019378757967,-105.751586774025
Regina,2026-04-30 05:00:00+00:00,2,2,2,0,3.84,3.84,3.84,3.33,3.33,3.33,32.34,32.34,32.34,9.56,35.91,2.78,47.92,50.4502077461615,-104.617125744561
Saskatoon,2026-04-30 05:00:00+00:00,3,3,3,0,6.61,6.61,6.61,9.35,9.35,9.35,30.79,30.79,30.79,4.78,148.52,6.31,50.87,52.1361376913645,-106.662942708646
Swift Current,2026-04-30 05:00:00+00:00,3,3,3,0,11.14,11.14,11.14,12.93,12.93,12.93,21.76,21.76,21.76,2.09,122.93,4.82,55.0,50.2858504122844,-107.816680514048
