station,datetime,AQHI_0,AQHI_1,AQHI_2,AQHI_trend,PM25_0,PM25_1,PM25_2,NO2_0,NO2_1,NO2_2,O3_0,O3_1,O3_2,WS,WD,TEMP,RH,lat,lon
Buffalo Narrows,2026-04-29 05:00:00+00:00,2,2,2,0,2.47,2.47,2.47,0.92,0.92,0.92,34.11,34.11,34.11,1.35,318.13,-0.21,59.5,55.8347917730994,-108.40387034522
Estevan,2026-04-29 05:00:00+00:00,2,2,2,0,5.76,5.76,5.76,4.77,4.77,4.77,25.53,25.53,25.53,7.9,37.05,2.57,46.71,49.1323647672702,-102.985002018981
Prince Albert,2026-04-29 05:00:00+00:00,3,3,3,0,4.4,4.4,4.4,3.53,3.53,3.53,39.47,39.47,39.47,6.67,244.43,4.15,49.19,53.2019378757967,-105.751586774025
Regina,2026-04-29 05:00:00+00:00,3,3,3,0,5.0,5.0,5.0,12.24,12.24,12.24,25.99,25.99,25.99,11.02,70.56,2.07,52.34,50.4502077461615,-104.617125744561
Saskatoon,2026-04-29 05:00:00+00:00,3,3,3,0,5.46,5.46,5.46,12.01,12.01,12.01,28.2,28.2,28.2,5.01,177.74,3.45,47.06,52.1361376913645,-106.662942708646
Swift Current,2026-04-29 05:00:00+00:00,2,2,2,0,3.78,3.78,3.78,7.43,7.43,7.43,30.62,30.62,30.62,7.81,87.46,2.09,60.53,50.2858504122844,-107.816680514048
