station,datetime,AQHI_0,AQHI_1,AQHI_2,AQHI_trend,PM25_0,PM25_1,PM25_2,NO2_0,NO2_1,NO2_2,O3_0,O3_1,O3_2,WS,WD,TEMP,RH,lat,lon
Buffalo Narrows,2026-04-29 01:00:00+00:00,2,2,2,0,3.12,3.12,3.12,0.38,0.38,0.38,41.6,41.6,41.6,6.91,357.68,2.86,49.63,55.8347917730994,-108.40387034522
Estevan,2026-04-29 01:00:00+00:00,2,2,2,0,5.15,5.15,5.15,3.53,3.53,3.53,35.15,35.15,35.15,7.77,352.5,8.15,32.23,49.1323647672702,-102.985002018981
Prince Albert,2026-04-29 01:00:00+00:00,3,3,3,0,4.75,4.75,4.75,2.83,2.83,2.83,42.39,42.39,42.39,3.93,300.76,6.43,36.9,53.2019378757967,-105.751586774025
Regina,2026-04-29 01:00:00+00:00,2,2,2,0,3.91,3.91,3.91,1.94,1.94,1.94,38.12,38.12,38.12,14.15,19.45,5.82,36.56,50.4502077461615,-104.617125744561
Saskatoon,2026-04-29 01:00:00+00:00,3,3,3,0,3.92,3.92,3.92,2.46,2.46,2.46,40.57,40.57,40.57,6.28,358.86,6.56,34.74,52.1361376913645,-106.662942708646
Swift Current,2026-04-29 01:00:00+00:00,3,3,3,0,6.5,6.5,6.5,5.72,5.72,5.72,36.49,36.49,36.49,8.84,353.04,9.53,34.11,50.2858504122844,-107.816680514048
