station,datetime,AQHI_0,AQHI_1,AQHI_2,AQHI_trend,PM25_0,PM25_1,PM25_2,NO2_0,NO2_1,NO2_2,O3_0,O3_1,O3_2,WS,WD,TEMP,RH,lat,lon
Buffalo Narrows,2026-04-24 06:00:00+00:00,2,2,2,0,1.57,1.57,1.57,0.08,0.08,0.08,41.25,41.25,41.25,23.38,345.74,-6.04,81.4,55.8347917730994,-108.40387034522
Estevan,2026-04-24 06:00:00+00:00,2,2,2,0,1.71,1.71,1.71,1.75,1.75,1.75,30.25,30.25,30.25,21.71,257.94,1.75,57.21,49.1323647672702,-102.985002018981
Prince Albert,2026-04-24 06:00:00+00:00,2,2,2,0,1.48,1.48,1.48,1.07,1.07,1.07,40.34,40.34,40.34,9.2,317.39,-5.14,77.1,53.2019378757967,-105.751586774025
Regina,2026-04-24 06:00:00+00:00,2,2,2,0,1.03,1.03,1.03,1.5,1.5,1.5,33.07,33.07,33.07,20.76,299.41,-2.09,61.28,50.4502077461615,-104.617125744561
Saskatoon,2026-04-24 06:00:00+00:00,2,2,2,0,1.15,1.15,1.15,1.84,1.84,1.84,37.7,37.7,37.7,13.72,306.58,-4.1,69.49,52.1361376913645,-106.662942708646
Swift Current,2026-04-24 06:00:00+00:00,2,2,2,0,1.11,1.11,1.11,1.9,1.9,1.9,39.19,39.19,39.19,23.85,300.53,-3.93,88.71,50.2858504122844,-107.816680514048
