station,datetime,AQHI_0,AQHI_1,AQHI_2,AQHI_trend,PM25_0,PM25_1,PM25_2,NO2_0,NO2_1,NO2_2,O3_0,O3_1,O3_2,WS,WD,TEMP,RH,lat,lon
Buffalo Narrows,2026-04-26 01:00:00+00:00,2,2,2,0,0.37,0.37,0.37,0.12,0.12,0.12,31.53,31.53,31.53,18.2,347.49,-3.39,79.0,55.8347917730994,-108.40387034522
Estevan,2026-04-26 01:00:00+00:00,2,2,2,0,1.88,1.88,1.88,1.97,1.97,1.97,33.65,33.65,33.65,17.37,261.04,-0.58,45.07,49.1323647672702,-102.985002018981
Prince Albert,2026-04-26 01:00:00+00:00,2,2,2,0,1.12,1.12,1.12,1.48,1.48,1.48,36.84,36.84,36.84,5.33,305.53,0.34,69.1,53.2019378757967,-105.751586774025
Regina,2026-04-26 01:00:00+00:00,2,2,2,0,2.61,2.61,2.61,2.68,2.68,2.68,29.35,29.35,29.35,15.22,280.18,-1.8,59.56,50.4502077461615,-104.617125744561
Saskatoon,2026-04-26 01:00:00+00:00,2,2,2,0,1.27,1.27,1.27,2.77,2.77,2.77,33.28,33.28,33.28,11.29,280.19,-1.28,67.41,52.1361376913645,-106.662942708646
Swift Current,2026-04-26 01:00:00+00:00,2,2,2,0,2.04,2.04,2.04,3.03,3.03,3.03,37.54,37.54,37.54,13.46,286.72,-4.09,79.64,50.2858504122844,-107.816680514048
