station,datetime,AQHI_0,AQHI_1,AQHI_2,AQHI_trend,PM25_0,PM25_1,PM25_2,NO2_0,NO2_1,NO2_2,O3_0,O3_1,O3_2,WS,WD,TEMP,RH,lat,lon
Buffalo Narrows,2026-04-29 18:00:00+00:00,2,2,2,0,2.89,2.89,2.89,0.48,0.48,0.48,39.83,39.83,39.83,5.85,21.77,3.96,44.19,55.8347917730994,-108.40387034522
Estevan,2026-04-29 18:00:00+00:00,2,2,2,0,4.14,4.14,4.14,2.28,2.28,2.28,38.33,38.33,38.33,11.5,344.7,5.46,36.84,49.1323647672702,-102.985002018981
Prince Albert,2026-04-29 18:00:00+00:00,2,2,2,0,5.38,5.38,5.38,1.28,1.28,1.28,39.78,39.78,39.78,9.73,350.88,6.14,38.72,53.2019378757967,-105.751586774025
Regina,2026-04-29 18:00:00+00:00,2,2,2,0,4.0,4.0,4.0,2.11,2.11,2.11,39.41,39.41,39.41,13.05,298.45,7.56,32.71,50.4502077461615,-104.617125744561
Saskatoon,2026-04-29 18:00:00+00:00,3,3,3,0,7.09,7.09,7.09,2.42,2.42,2.42,40.06,40.06,40.06,15.98,304.7,10.04,36.73,52.1361376913645,-106.662942708646
Swift Current,2026-04-29 18:00:00+00:00,3,3,3,0,5.19,5.19,5.19,3.84,3.84,3.84,38.05,38.05,38.05,6.55,296.24,8.39,34.8,50.2858504122844,-107.816680514048
