station,datetime,AQHI_0,AQHI_1,AQHI_2,AQHI_trend,PM25_0,PM25_1,PM25_2,NO2_0,NO2_1,NO2_2,O3_0,O3_1,O3_2,WS,WD,TEMP,RH,lat,lon
Buffalo Narrows,2026-05-01 09:00:00+00:00,2,2,2,0,3.33,3.33,3.33,0.58,0.58,0.58,34.91,34.91,34.91,2.77,183.18,2.94,56.47,55.8347917730994,-108.40387034522
Estevan,2026-05-01 09:00:00+00:00,2,2,2,0,7.4,7.4,7.4,6.26,6.26,6.26,13.36,13.36,13.36,4.87,239.78,0.03,65.31,49.1323647672702,-102.985002018981
Prince Albert,2026-05-01 09:00:00+00:00,3,3,3,0,15.18,15.18,15.18,20.42,20.42,20.42,7.61,7.61,7.61,1.96,69.03,3.83,63.01,53.2019378757967,-105.751586774025
Regina,2026-05-01 09:00:00+00:00,2,2,2,0,5.6,5.6,5.6,9.06,9.06,9.06,25.96,25.96,25.96,6.9,223.93,5.94,42.34,50.4502077461615,-104.617125744561
Saskatoon,2026-05-01 09:00:00+00:00,2,2,2,0,3.73,3.73,3.73,5.01,5.01,5.01,34.03,34.03,34.03,5.07,202.88,6.47,45.93,52.1361376913645,-106.662942708646
Swift Current,2026-05-01 09:00:00+00:00,2,2,2,0,3.45,3.45,3.45,6.29,6.29,6.29,32.17,32.17,32.17,3.15,264.17,5.0,48.58,50.2858504122844,-107.816680514048
