station,datetime,AQHI_0,AQHI_1,AQHI_2,AQHI_trend,PM25_0,PM25_1,PM25_2,NO2_0,NO2_1,NO2_2,O3_0,O3_1,O3_2,WS,WD,TEMP,RH,lat,lon
Buffalo Narrows,2026-04-24 10:00:00+00:00,2,2,2,0,2.2,2.2,2.2,0.08,0.08,0.08,43.26,43.26,43.26,23.4,345.82,-7.03,80.8,55.8347917730994,-108.40387034522
Estevan,2026-04-24 10:00:00+00:00,2,2,2,0,1.54,1.54,1.54,1.96,1.96,1.96,30.09,30.09,30.09,21.91,254.74,-1.56,66.62,49.1323647672702,-102.985002018981
Prince Albert,2026-04-24 10:00:00+00:00,2,2,2,0,0.61,0.61,0.61,1.12,1.12,1.12,38.33,38.33,38.33,9.36,309.86,-5.31,76.48,53.2019378757967,-105.751586774025
Regina,2026-04-24 10:00:00+00:00,2,2,2,0,0.93,0.93,0.93,2.5,2.5,2.5,33.2,33.2,33.2,16.72,278.68,-4.03,67.03,50.4502077461615,-104.617125744561
Saskatoon,2026-04-24 10:00:00+00:00,2,2,2,0,1.34,1.34,1.34,1.95,1.95,1.95,36.27,36.27,36.27,12.97,306.41,-4.49,71.79,52.1361376913645,-106.662942708646
Swift Current,2026-04-24 10:00:00+00:00,2,2,2,0,1.03,1.03,1.03,1.69,1.69,1.69,41.07,41.07,41.07,28.58,299.11,-6.15,85.93,50.2858504122844,-107.816680514048
