station,datetime,AQHI_0,AQHI_1,AQHI_2,AQHI_trend,PM25_0,PM25_1,PM25_2,NO2_0,NO2_1,NO2_2,O3_0,O3_1,O3_2,WS,WD,TEMP,RH,lat,lon
Buffalo Narrows,2026-04-29 21:00:00+00:00,3,3,3,0,2.53,2.53,2.53,0.55,0.55,0.55,45.87,45.87,45.87,5.88,27.73,6.95,34.16,55.8347917730994,-108.40387034522
Estevan,2026-04-29 21:00:00+00:00,2,2,2,0,4.42,4.42,4.42,2.44,2.44,2.44,39.43,39.43,39.43,10.86,321.67,7.05,32.4,49.1323647672702,-102.985002018981
Prince Albert,2026-04-29 21:00:00+00:00,3,3,3,0,7.42,7.42,7.42,2.25,2.25,2.25,38.96,38.96,38.96,7.54,162.91,7.35,39.62,53.2019378757967,-105.751586774025
Regina,2026-04-29 21:00:00+00:00,3,3,3,0,4.46,4.46,4.46,2.42,2.42,2.42,40.88,40.88,40.88,15.74,299.99,9.74,31.66,50.4502077461615,-104.617125744561
Saskatoon,2026-04-29 21:00:00+00:00,3,3,3,0,6.27,6.27,6.27,2.52,2.52,2.52,43.12,43.12,43.12,11.83,336.55,12.11,30.92,52.1361376913645,-106.662942708646
Swift Current,2026-04-29 21:00:00+00:00,3,3,3,0,3.7,3.7,3.7,2.86,2.86,2.86,41.67,41.67,41.67,9.79,323.21,10.46,29.42,50.2858504122844,-107.816680514048
