station,datetime,AQHI_0,AQHI_1,AQHI_2,AQHI_trend,PM25_0,PM25_1,PM25_2,NO2_0,NO2_1,NO2_2,O3_0,O3_1,O3_2,WS,WD,TEMP,RH,lat,lon
Buffalo Narrows,2026-05-02 13:00:00+00:00,2,2,2,0,1.06,1.06,1.06,0.93,0.93,0.93,29.88,29.88,29.88,2.59,196.46,-0.87,67.24,55.8347917730994,-108.40387034522
Estevan,2026-05-02 13:00:00+00:00,2,2,2,0,4.95,4.95,4.95,5.36,5.36,5.36,24.7,24.7,24.7,8.13,277.73,8.71,47.47,49.1323647672702,-102.985002018981
Prince Albert,2026-05-02 13:00:00+00:00,2,2,2,0,5.09,5.09,5.09,5.05,5.05,5.05,33.2,33.2,33.2,2.86,283.43,3.95,71.88,53.2019378757967,-105.751586774025
Regina,2026-05-02 13:00:00+00:00,2,2,2,0,5.88,5.88,5.88,2.57,2.57,2.57,28.44,28.44,28.44,13.33,331.83,7.22,59.65,50.4502077461615,-104.617125744561
Saskatoon,2026-05-02 13:00:00+00:00,2,2,2,0,5.12,5.12,5.12,4.2,4.2,4.2,28.38,28.38,28.38,5.35,324.33,5.71,68.72,52.1361376913645,-106.662942708646
Swift Current,2026-05-02 13:00:00+00:00,2,2,2,0,4.13,4.13,4.13,15.44,15.44,15.44,14.66,14.66,14.66,5.28,285.56,8.75,70.5,50.2858504122844,-107.816680514048
