station,datetime,AQHI_0,AQHI_1,AQHI_2,AQHI_trend,PM25_0,PM25_1,PM25_2,NO2_0,NO2_1,NO2_2,O3_0,O3_1,O3_2,WS,WD,TEMP,RH,lat,lon
Buffalo Narrows,2026-04-25 16:00:00+00:00,2,2,2,0,1.18,1.18,1.18,0.29,0.29,0.29,33.31,33.31,33.31,15.68,345.25,-6.06,78.24,55.8347917730994,-108.40387034522
Estevan,2026-04-25 16:00:00+00:00,2,2,2,0,2.1,2.1,2.1,1.29,1.29,1.29,31.97,31.97,31.97,25.6,252.94,-3.4,49.92,49.1323647672702,-102.985002018981
Prince Albert,2026-04-25 16:00:00+00:00,2,2,2,0,1.14,1.14,1.14,1.24,1.24,1.24,34.24,34.24,34.24,8.92,330.12,-2.29,70.54,53.2019378757967,-105.751586774025
Regina,2026-04-25 16:00:00+00:00,2,2,2,0,2.02,2.02,2.02,1.79,1.79,1.79,29.79,29.79,29.79,25.49,263.81,-5.05,70.55,50.4502077461615,-104.617125744561
Saskatoon,2026-04-25 16:00:00+00:00,2,2,2,0,0.53,0.53,0.53,2.27,2.27,2.27,32.39,32.39,32.39,14.52,326.45,-4.28,73.72,52.1361376913645,-106.662942708646
Swift Current,2026-04-25 16:00:00+00:00,2,2,2,0,1.6,1.6,1.6,2.9,2.9,2.9,35.64,35.64,35.64,25.22,293.95,-6.77,92.75,50.2858504122844,-107.816680514048
