station,datetime,AQHI_0,AQHI_1,AQHI_2,AQHI_trend,PM25_0,PM25_1,PM25_2,NO2_0,NO2_1,NO2_2,O3_0,O3_1,O3_2,WS,WD,TEMP,RH,lat,lon
Buffalo Narrows,2026-05-02 05:00:00+00:00,2,2,2,0,0.93,0.93,0.93,0.1,0.1,0.1,36.01,36.01,36.01,2.35,328.62,5.38,58.38,55.8347917730994,-108.40387034522
Estevan,2026-05-02 05:00:00+00:00,3,3,3,0,7.78,7.78,7.78,4.61,4.61,4.61,35.01,35.01,35.01,6.27,181.32,10.77,31.74,49.1323647672702,-102.985002018981
Prince Albert,2026-05-02 05:00:00+00:00,3,3,3,0,14.17,14.17,14.17,7.14,7.14,7.14,38.36,38.36,38.36,5.17,305.81,9.38,52.39,53.2019378757967,-105.751586774025
Regina,2026-05-02 05:00:00+00:00,3,3,3,0,4.94,4.94,4.94,4.2,4.2,4.2,38.25,38.25,38.25,13.82,213.02,16.64,22.59,50.4502077461615,-104.617125744561
Saskatoon,2026-05-02 05:00:00+00:00,2,2,2,0,4.92,4.92,4.92,3.17,3.17,3.17,36.69,36.69,36.69,10.69,300.81,15.84,35.34,52.1361376913645,-106.662942708646
Swift Current,2026-05-02 05:00:00+00:00,3,3,3,0,5.03,5.03,5.03,7.28,7.28,7.28,34.77,34.77,34.77,6.45,329.88,14.29,36.81,50.2858504122844,-107.816680514048
