station,datetime,AQHI_0,AQHI_1,AQHI_2,AQHI_trend,PM25_0,PM25_1,PM25_2,NO2_0,NO2_1,NO2_2,O3_0,O3_1,O3_2,WS,WD,TEMP,RH,lat,lon
Buffalo Narrows,2026-05-04 07:00:00+00:00,2,2,2,0,2.72,2.72,2.72,0.19,0.19,0.19,33.51,33.51,33.51,9.72,300.65,1.41,60.24,55.8347917730994,-108.40387034522
Estevan,2026-05-04 07:00:00+00:00,2,2,2,0,1.62,1.62,1.62,1.35,1.35,1.35,40.31,40.31,40.31,18.01,317.14,6.52,47.1,49.1323647672702,-102.985002018981
Prince Albert,2026-05-04 07:00:00+00:00,2,2,2,0,1.49,1.49,1.49,0.51,0.51,0.51,39.14,39.14,39.14,11.74,324.29,3.12,67.87,53.2019378757967,-105.751586774025
Regina,2026-05-04 07:00:00+00:00,2,2,2,0,1.41,1.41,1.41,1.26,1.26,1.26,34.08,34.08,34.08,18.34,347.3,4.24,60.46,50.4502077461615,-104.617125744561
Saskatoon,2026-05-04 07:00:00+00:00,2,2,2,0,1.66,1.66,1.66,2.7,2.7,2.7,37.12,37.12,37.12,7.08,324.43,4.56,59.52,52.1361376913645,-106.662942708646
Swift Current,2026-05-04 07:00:00+00:00,2,2,2,0,2.33,2.33,2.33,2.17,2.17,2.17,40.37,40.37,40.37,11.76,343.0,6.6,55.77,50.2858504122844,-107.816680514048
