station,datetime,AQHI_0,AQHI_1,AQHI_2,AQHI_trend,PM25_0,PM25_1,PM25_2,NO2_0,NO2_1,NO2_2,O3_0,O3_1,O3_2,WS,WD,TEMP,RH,lat,lon
Buffalo Narrows,2026-05-02 12:00:00+00:00,2,2,2,0,0.96,0.96,0.96,0.32,0.32,0.32,31.68,31.68,31.68,2.77,207.62,-1.13,67.33,55.8347917730994,-108.40387034522
Estevan,2026-05-02 12:00:00+00:00,2,2,2,0,4.62,4.62,4.62,4.25,4.25,4.25,26.81,26.81,26.81,10.41,257.3,7.7,44.22,49.1323647672702,-102.985002018981
Prince Albert,2026-05-02 12:00:00+00:00,3,3,3,0,4.82,4.82,4.82,6.07,6.07,6.07,34.29,34.29,34.29,3.15,286.98,3.83,72.19,53.2019378757967,-105.751586774025
Regina,2026-05-02 12:00:00+00:00,2,2,2,0,5.93,5.93,5.93,2.28,2.28,2.28,28.24,28.24,28.24,14.75,331.21,8.16,57.09,50.4502077461615,-104.617125744561
Saskatoon,2026-05-02 12:00:00+00:00,2,2,2,0,5.28,5.28,5.28,5.08,5.08,5.08,30.45,30.45,30.45,3.16,306.84,6.07,66.4,52.1361376913645,-106.662942708646
Swift Current,2026-05-02 12:00:00+00:00,2,2,2,0,4.26,4.26,4.26,9.29,9.29,9.29,19.36,19.36,19.36,6.28,301.43,8.15,72.11,50.2858504122844,-107.816680514048
