station,datetime,AQHI_0,AQHI_1,AQHI_2,AQHI_trend,PM25_0,PM25_1,PM25_2,NO2_0,NO2_1,NO2_2,O3_0,O3_1,O3_2,WS,WD,TEMP,RH,lat,lon
Buffalo Narrows,2026-04-29 00:00:00+00:00,2,2,2,0,2.85,2.85,2.85,0.33,0.33,0.33,37.98,37.98,37.98,9.91,358.05,1.97,57.7,55.8347917730994,-108.40387034522
Estevan,2026-04-29 00:00:00+00:00,2,2,2,0,5.26,5.26,5.26,3.4,3.4,3.4,35.59,35.59,35.59,5.64,343.15,8.51,31.46,49.1323647672702,-102.985002018981
Prince Albert,2026-04-29 00:00:00+00:00,3,3,3,0,4.88,4.88,4.88,2.48,2.48,2.48,42.77,42.77,42.77,5.05,326.84,6.2,36.63,53.2019378757967,-105.751586774025
Regina,2026-04-29 00:00:00+00:00,2,2,2,0,5.66,5.66,5.66,2.57,2.57,2.57,38.02,38.02,38.02,12.9,1.59,6.19,37.01,50.4502077461615,-104.617125744561
Saskatoon,2026-04-29 00:00:00+00:00,3,3,3,0,4.33,4.33,4.33,3.27,3.27,3.27,39.52,39.52,39.52,6.13,11.31,6.7,35.48,52.1361376913645,-106.662942708646
Swift Current,2026-04-29 00:00:00+00:00,2,2,2,0,4.03,4.03,4.03,3.47,3.47,3.47,38.62,38.62,38.62,6.06,337.28,10.16,33.01,50.2858504122844,-107.816680514048
