station,datetime,AQHI_0,AQHI_1,AQHI_2,AQHI_trend,PM25_0,PM25_1,PM25_2,NO2_0,NO2_1,NO2_2,O3_0,O3_1,O3_2,WS,WD,TEMP,RH,lat,lon
Buffalo Narrows,2026-05-01 01:00:00+00:00,3,3,3,0,3.1,3.1,3.1,0.32,0.32,0.32,52.21,52.21,52.21,4.79,356.87,10.97,35.05,55.8347917730994,-108.40387034522
Estevan,2026-05-01 01:00:00+00:00,3,3,3,0,4.42,4.42,4.42,2.38,2.38,2.38,43.82,43.82,43.82,9.61,319.47,12.23,24.28,49.1323647672702,-102.985002018981
Prince Albert,2026-05-01 01:00:00+00:00,3,3,3,0,7.73,7.73,7.73,2.93,2.93,2.93,50.98,50.98,50.98,7.02,264.71,16.63,25.06,53.2019378757967,-105.751586774025
Regina,2026-05-01 01:00:00+00:00,3,3,3,0,4.9,4.9,4.9,1.56,1.56,1.56,43.69,43.69,43.69,8.55,349.56,13.82,25.43,50.4502077461615,-104.617125744561
Saskatoon,2026-05-01 01:00:00+00:00,3,3,3,0,4.23,4.23,4.23,1.29,1.29,1.29,50.85,50.85,50.85,10.52,262.52,17.87,18.46,52.1361376913645,-106.662942708646
Swift Current,2026-05-01 01:00:00+00:00,3,3,3,0,3.69,3.69,3.69,3.11,3.11,3.11,52.94,52.94,52.94,6.0,70.08,14.9,16.18,50.2858504122844,-107.816680514048
