station,datetime,AQHI_0,AQHI_1,AQHI_2,AQHI_trend,PM25_0,PM25_1,PM25_2,NO2_0,NO2_1,NO2_2,O3_0,O3_1,O3_2,WS,WD,TEMP,RH,lat,lon
Buffalo Narrows,2026-04-27 02:00:00+00:00,2,2,2,0,0.92,0.92,0.92,0.13,0.13,0.13,34.72,34.72,34.72,7.35,333.07,-2.66,77.86,55.8347917730994,-108.40387034522
Estevan,2026-04-27 02:00:00+00:00,2,2,2,0,4.3,4.3,4.3,5.66,5.66,5.66,32.95,32.95,32.95,5.93,330.31,0.76,68.02,49.1323647672702,-102.985002018981
Prince Albert,2026-04-27 02:00:00+00:00,2,2,2,0,0.84,0.84,0.84,1.07,1.07,1.07,33.68,33.68,33.68,6.81,295.21,0.78,57.51,53.2019378757967,-105.751586774025
Regina,2026-04-27 02:00:00+00:00,2,2,2,0,2.94,2.94,2.94,2.12,2.12,2.12,30.09,30.09,30.09,12.07,300.25,-0.17,50.2,50.4502077461615,-104.617125744561
Saskatoon,2026-04-27 02:00:00+00:00,2,2,2,0,1.8,1.8,1.8,2.04,2.04,2.04,33.4,33.4,33.4,10.09,275.77,0.2,55.56,52.1361376913645,-106.662942708646
Swift Current,2026-04-27 02:00:00+00:00,2,2,2,0,3.22,3.22,3.22,3.6,3.6,3.6,33.08,33.08,33.08,8.94,311.92,-3.11,72.05,50.2858504122844,-107.816680514048
