station,datetime,AQHI_0,AQHI_1,AQHI_2,AQHI_trend,PM25_0,PM25_1,PM25_2,NO2_0,NO2_1,NO2_2,O3_0,O3_1,O3_2,WS,WD,TEMP,RH,lat,lon
Buffalo Narrows,2026-05-02 02:00:00+00:00,2,2,2,0,2.41,2.41,2.41,0.22,0.22,0.22,44.02,44.02,44.02,9.15,346.45,11.12,39.48,55.8347917730994,-108.40387034522
Estevan,2026-05-02 02:00:00+00:00,3,3,3,0,7.54,7.54,7.54,9.25,9.25,9.25,39.82,39.82,39.82,7.94,197.79,17.55,19.12,49.1323647672702,-102.985002018981
Prince Albert,2026-05-02 02:00:00+00:00,3,3,3,0,9.38,9.38,9.38,2.03,2.03,2.03,46.58,46.58,46.58,8.68,334.84,11.52,49.76,53.2019378757967,-105.751586774025
Regina,2026-05-02 02:00:00+00:00,3,3,3,0,9.49,9.49,9.49,13.06,13.06,13.06,37.09,37.09,37.09,5.47,218.86,19.71,15.23,50.4502077461615,-104.617125744561
Saskatoon,2026-05-02 02:00:00+00:00,3,3,3,0,8.54,8.54,8.54,2.34,2.34,2.34,46.61,46.61,46.61,15.83,321.18,20.55,23.3,52.1361376913645,-106.662942708646
Swift Current,2026-05-02 02:00:00+00:00,3,3,3,0,7.04,7.04,7.04,5.75,5.75,5.75,47.1,47.1,47.1,11.37,297.53,21.5,17.79,50.2858504122844,-107.816680514048
