station,datetime,AQHI_0,AQHI_1,AQHI_2,AQHI_trend,PM25_0,PM25_1,PM25_2,NO2_0,NO2_1,NO2_2,O3_0,O3_1,O3_2,WS,WD,TEMP,RH,lat,lon
Buffalo Narrows,2026-05-02 04:00:00+00:00,2,2,2,0,1.06,1.06,1.06,0.1,0.1,0.1,38.54,38.54,38.54,7.16,341.32,7.75,50.66,55.8347917730994,-108.40387034522
Estevan,2026-05-02 04:00:00+00:00,3,3,3,0,17.27,17.27,17.27,6.78,6.78,6.78,32.89,32.89,32.89,5.53,160.35,11.9,29.41,49.1323647672702,-102.985002018981
Prince Albert,2026-05-02 04:00:00+00:00,4,4,4,0,18.7,18.7,18.7,8.44,8.44,8.44,37.16,37.16,37.16,3.06,288.79,10.01,51.55,53.2019378757967,-105.751586774025
Regina,2026-05-02 04:00:00+00:00,3,3,3,0,6.05,6.05,6.05,8.15,8.15,8.15,37.27,37.27,37.27,9.85,192.7,17.29,19.13,50.4502077461615,-104.617125744561
Saskatoon,2026-05-02 04:00:00+00:00,3,3,3,0,8.04,8.04,8.04,6.45,6.45,6.45,35.61,35.61,35.61,6.51,299.06,16.73,33.69,52.1361376913645,-106.662942708646
Swift Current,2026-05-02 04:00:00+00:00,3,3,3,0,5.51,5.51,5.51,6.17,6.17,6.17,36.77,36.77,36.77,9.37,337.83,15.65,33.32,50.2858504122844,-107.816680514048
