station,datetime,AQHI_0,AQHI_1,AQHI_2,AQHI_trend,PM25_0,PM25_1,PM25_2,NO2_0,NO2_1,NO2_2,O3_0,O3_1,O3_2,WS,WD,TEMP,RH,lat,lon
Buffalo Narrows,2026-04-28 09:00:00+00:00,2,2,2,0,0.73,0.73,0.73,0.06,0.06,0.06,31.87,31.87,31.87,2.87,99.78,-2.13,66.94,55.8347917730994,-108.40387034522
Estevan,2026-04-28 09:00:00+00:00,1,1,1,0,4.29,4.29,4.29,7.62,7.62,7.62,8.95,8.95,8.95,4.52,262.9,-5.37,72.53,49.1323647672702,-102.985002018981
Prince Albert,2026-04-28 09:00:00+00:00,2,2,2,0,4.62,4.62,4.62,7.54,7.54,7.54,31.3,31.3,31.3,2.23,288.64,-1.07,64.2,53.2019378757967,-105.751586774025
Regina,2026-04-28 09:00:00+00:00,2,2,2,0,5.64,5.64,5.64,19.24,19.24,19.24,9.62,9.62,9.62,4.65,230.44,-3.2,61.82,50.4502077461615,-104.617125744561
Saskatoon,2026-04-28 09:00:00+00:00,2,2,2,0,5.15,5.15,5.15,12.82,12.82,12.82,21.0,21.0,21.0,3.77,154.33,-2.09,64.57,52.1361376913645,-106.662942708646
Swift Current,2026-04-28 09:00:00+00:00,2,2,2,0,3.1,3.1,3.1,2.0,2.0,2.0,27.53,27.53,27.53,3.37,162.38,-4.0,76.43,50.2858504122844,-107.816680514048
