station,datetime,AQHI_0,AQHI_1,AQHI_2,AQHI_trend,PM25_0,PM25_1,PM25_2,NO2_0,NO2_1,NO2_2,O3_0,O3_1,O3_2,WS,WD,TEMP,RH,lat,lon
Buffalo Narrows,2026-04-27 09:00:00+00:00,2,2,2,0,0.79,0.79,0.79,0.03,0.03,0.03,33.88,33.88,33.88,4.04,319.64,-5.56,75.18,55.8347917730994,-108.40387034522
Estevan,2026-04-27 09:00:00+00:00,2,2,2,0,4.08,4.08,4.08,3.27,3.27,3.27,24.96,24.96,24.96,6.98,338.32,-1.35,64.6,49.1323647672702,-102.985002018981
Prince Albert,2026-04-27 09:00:00+00:00,2,2,2,0,1.03,1.03,1.03,5.18,5.18,5.18,28.54,28.54,28.54,3.84,273.32,-2.7,72.97,53.2019378757967,-105.751586774025
Regina,2026-04-27 09:00:00+00:00,2,2,2,0,2.96,2.96,2.96,11.41,11.41,11.41,16.8,16.8,16.8,5.43,310.2,-3.3,59.32,50.4502077461615,-104.617125744561
Saskatoon,2026-04-27 09:00:00+00:00,2,2,2,0,2.84,2.84,2.84,4.07,4.07,4.07,31.51,31.51,31.51,6.51,258.95,-1.49,63.74,52.1361376913645,-106.662942708646
Swift Current,2026-04-27 09:00:00+00:00,2,2,2,0,2.9,2.9,2.9,5.34,5.34,5.34,30.29,30.29,30.29,7.35,289.92,-3.69,66.28,50.2858504122844,-107.816680514048
