station,datetime,AQHI_0,AQHI_1,AQHI_2,AQHI_trend,PM25_0,PM25_1,PM25_2,NO2_0,NO2_1,NO2_2,O3_0,O3_1,O3_2,WS,WD,TEMP,RH,lat,lon
Buffalo Narrows,2026-05-04 05:00:00+00:00,2,2,2,0,0.45,0.45,0.45,0.4,0.4,0.4,34.42,34.42,34.42,12.24,333.71,1.31,59.6,55.8347917730994,-108.40387034522
Estevan,2026-05-04 05:00:00+00:00,3,3,3,0,4.8,4.8,4.8,1.3,1.3,1.3,43.63,43.63,43.63,19.83,319.51,11.71,34.69,49.1323647672702,-102.985002018981
Prince Albert,2026-05-04 05:00:00+00:00,2,2,2,0,1.92,1.92,1.92,0.76,0.76,0.76,42.18,42.18,42.18,9.54,326.71,4.24,61.04,53.2019378757967,-105.751586774025
Regina,2026-05-04 05:00:00+00:00,2,2,2,0,2.72,2.72,2.72,1.92,1.92,1.92,34.38,34.38,34.38,17.76,345.29,7.87,44.54,50.4502077461615,-104.617125744561
Saskatoon,2026-05-04 05:00:00+00:00,2,2,2,0,1.52,1.52,1.52,1.89,1.89,1.89,41.0,41.0,41.0,18.6,351.07,5.92,55.44,52.1361376913645,-106.662942708646
Swift Current,2026-05-04 05:00:00+00:00,3,3,3,0,2.12,2.12,2.12,2.19,2.19,2.19,43.55,43.55,43.55,12.44,313.41,10.68,37.69,50.2858504122844,-107.816680514048
