station,datetime,AQHI_0,AQHI_1,AQHI_2,AQHI_trend,PM25_0,PM25_1,PM25_2,NO2_0,NO2_1,NO2_2,O3_0,O3_1,O3_2,WS,WD,TEMP,RH,lat,lon
Buffalo Narrows,2026-04-26 17:00:00+00:00,2,2,2,0,1.77,1.77,1.77,0.29,0.29,0.29,34.48,34.48,34.48,12.89,346.58,-5.01,73.5,55.8347917730994,-108.40387034522
Estevan,2026-04-26 17:00:00+00:00,2,2,2,0,3.12,3.12,3.12,2.39,2.39,2.39,37.9,37.9,37.9,8.62,264.87,1.48,42.85,49.1323647672702,-102.985002018981
Prince Albert,2026-04-26 17:00:00+00:00,2,2,2,0,2.61,2.61,2.61,3.03,3.03,3.03,37.15,37.15,37.15,3.09,256.16,-0.83,69.14,53.2019378757967,-105.751586774025
Regina,2026-04-26 17:00:00+00:00,2,2,2,0,4.28,4.28,4.28,2.96,2.96,2.96,32.04,32.04,32.04,13.56,266.24,-1.64,61.33,50.4502077461615,-104.617125744561
Saskatoon,2026-04-26 17:00:00+00:00,2,2,2,0,0.98,0.98,0.98,1.79,1.79,1.79,31.3,31.3,31.3,13.12,290.06,-1.32,63.99,52.1361376913645,-106.662942708646
Swift Current,2026-04-26 17:00:00+00:00,2,2,2,0,3.57,3.57,3.57,4.14,4.14,4.14,34.35,34.35,34.35,12.04,276.61,-4.83,81.59,50.2858504122844,-107.816680514048
