station,datetime,AQHI_0,AQHI_1,AQHI_2,AQHI_trend,PM25_0,PM25_1,PM25_2,NO2_0,NO2_1,NO2_2,O3_0,O3_1,O3_2,WS,WD,TEMP,RH,lat,lon
Buffalo Narrows,2026-04-25 19:00:00+00:00,2.0,2.0,2.0,0,0.54,0.54,0.54,0.31,0.31,0.31,35.2,35.2,35.2,15.82,342.36,-4.19,74.16,55.8347917730994,-108.40387034522
Estevan,2026-04-25 19:00:00+00:00,2.0,2.0,2.0,0,2.53,2.53,2.53,1.43,1.43,1.43,33.93,33.93,33.93,28.1,249.72,-1.77,49.18,49.1323647672702,-102.985002018981
Prince Albert,2026-04-25 19:00:00+00:00,2.0,2.0,2.0,0,0.53,0.53,0.53,1.64,1.64,1.64,34.38,34.38,34.38,11.58,319.71,-0.44,65.92,53.2019378757967,-105.751586774025
Regina,2026-04-25 19:00:00+00:00,,,,0,1.57,1.57,1.57,,,,,,,23.0,279.57,-2.6,68.06,50.4502077461615,-104.617125744561
Saskatoon,2026-04-25 19:00:00+00:00,2.0,2.0,2.0,0,0.83,0.83,0.83,2.23,2.23,2.23,33.41,33.41,33.41,13.85,307.52,-2.33,65.16,52.1361376913645,-106.662942708646
Swift Current,2026-04-25 19:00:00+00:00,2.0,2.0,2.0,0,1.87,1.87,1.87,3.62,3.62,3.62,37.5,37.5,37.5,26.99,285.85,-5.47,84.28,50.2858504122844,-107.816680514048
