station,datetime,AQHI_0,AQHI_1,AQHI_2,AQHI_trend,PM25_0,PM25_1,PM25_2,NO2_0,NO2_1,NO2_2,O3_0,O3_1,O3_2,WS,WD,TEMP,RH,lat,lon
Buffalo Narrows,2026-04-30 17:00:00+00:00,3,3,3,0,3.07,3.07,3.07,0.85,0.85,0.85,50.79,50.79,50.79,10.38,302.21,11.03,30.54,55.8347917730994,-108.40387034522
Estevan,2026-04-30 17:00:00+00:00,2,2,2,0,3.6,3.6,3.6,2.84,2.84,2.84,34.9,34.9,34.9,9.42,322.98,5.07,41.79,49.1323647672702,-102.985002018981
Prince Albert,2026-04-30 17:00:00+00:00,3,3,3,0,7.16,7.16,7.16,4.49,4.49,4.49,38.01,38.01,38.01,6.09,215.12,8.99,38.38,53.2019378757967,-105.751586774025
Regina,2026-04-30 17:00:00+00:00,2,2,2,0,3.92,3.92,3.92,3.27,3.27,3.27,34.47,34.47,34.47,8.79,246.77,7.31,38.62,50.4502077461615,-104.617125744561
Saskatoon,2026-04-30 17:00:00+00:00,3,3,3,0,6.44,6.44,6.44,4.89,4.89,4.89,35.95,35.95,35.95,7.76,234.62,11.31,35.76,52.1361376913645,-106.662942708646
Swift Current,2026-04-30 17:00:00+00:00,3,3,3,0,4.15,4.15,4.15,4.48,4.48,4.48,41.56,41.56,41.56,3.95,163.52,10.96,31.94,50.2858504122844,-107.816680514048
