station,datetime,AQHI_0,AQHI_1,AQHI_2,AQHI_trend,PM25_0,PM25_1,PM25_2,NO2_0,NO2_1,NO2_2,O3_0,O3_1,O3_2,WS,WD,TEMP,RH,lat,lon
Buffalo Narrows,2026-04-28 00:00:00+00:00,2,2,2,0,0.4,0.4,0.4,0.14,0.14,0.14,33.81,33.81,33.81,9.45,357.04,-1.95,60.5,55.8347917730994,-108.40387034522
Estevan,2026-04-28 00:00:00+00:00,2,2,2,0,4.09,4.09,4.09,2.45,2.45,2.45,35.64,35.64,35.64,14.03,315.28,5.32,34.24,49.1323647672702,-102.985002018981
Prince Albert,2026-04-28 00:00:00+00:00,3,3,3,0,4.61,4.61,4.61,3.38,3.38,3.38,38.8,38.8,38.8,7.88,250.23,2.47,49.78,53.2019378757967,-105.751586774025
Regina,2026-04-28 00:00:00+00:00,2,2,2,0,4.34,4.34,4.34,1.97,1.97,1.97,33.29,33.29,33.29,9.13,332.2,1.58,41.94,50.4502077461615,-104.617125744561
Saskatoon,2026-04-28 00:00:00+00:00,2,2,2,0,4.27,4.27,4.27,2.21,2.21,2.21,37.21,37.21,37.21,6.83,277.46,3.21,43.94,52.1361376913645,-106.662942708646
Swift Current,2026-04-28 00:00:00+00:00,2,2,2,0,3.46,3.46,3.46,2.89,2.89,2.89,35.36,35.36,35.36,4.1,239.46,1.96,45.42,50.2858504122844,-107.816680514048
