station,datetime,AQHI_0,AQHI_1,AQHI_2,AQHI_trend,PM25_0,PM25_1,PM25_2,NO2_0,NO2_1,NO2_2,O3_0,O3_1,O3_2,WS,WD,TEMP,RH,lat,lon
Buffalo Narrows,2026-04-30 09:00:00+00:00,2,2,2,0,2.5,2.5,2.5,0.58,0.58,0.58,41.5,41.5,41.5,7.96,187.98,3.18,48.32,55.8347917730994,-108.40387034522
Estevan,2026-04-30 09:00:00+00:00,2,2,2,0,4.78,4.78,4.78,3.78,3.78,3.78,24.95,24.95,24.95,9.09,325.72,0.47,65.18,49.1323647672702,-102.985002018981
Prince Albert,2026-04-30 09:00:00+00:00,2,2,2,0,7.98,7.98,7.98,20.15,20.15,20.15,4.16,4.16,4.16,2.27,66.32,-1.59,77.67,53.2019378757967,-105.751586774025
Regina,2026-04-30 09:00:00+00:00,3,3,3,0,8.04,8.04,8.04,21.39,21.39,21.39,13.67,13.67,13.67,2.98,330.89,0.37,58.44,50.4502077461615,-104.617125744561
Saskatoon,2026-04-30 09:00:00+00:00,2,2,2,0,4.64,4.64,4.64,6.73,6.73,6.73,23.23,23.23,23.23,6.87,208.06,1.72,66.5,52.1361376913645,-106.662942708646
Swift Current,2026-04-30 09:00:00+00:00,2,2,2,0,3.76,3.76,3.76,12.59,12.59,12.59,15.57,15.57,15.57,4.07,76.67,0.23,74.57,50.2858504122844,-107.816680514048
