station,datetime,AQHI_0,AQHI_1,AQHI_2,AQHI_trend,PM25_0,PM25_1,PM25_2,NO2_0,NO2_1,NO2_2,O3_0,O3_1,O3_2,WS,WD,TEMP,RH,lat,lon
Buffalo Narrows,2026-04-25 20:00:00+00:00,2,2,2,0,0.26,0.26,0.26,0.31,0.31,0.31,35.23,35.23,35.23,17.77,341.0,-3.61,72.56,55.8347917730994,-108.40387034522
Estevan,2026-04-25 20:00:00+00:00,2,2,2,0,2.43,2.43,2.43,1.75,1.75,1.75,34.48,34.48,34.48,24.41,249.64,-1.28,48.92,49.1323647672702,-102.985002018981
Prince Albert,2026-04-25 20:00:00+00:00,2,2,2,0,0.39,0.39,0.39,1.04,1.04,1.04,34.82,34.82,34.82,8.65,311.76,0.11,62.77,53.2019378757967,-105.751586774025
Regina,2026-04-25 20:00:00+00:00,2,2,2,0,1.63,1.63,1.63,1.6,1.6,1.6,32.28,32.28,32.28,22.4,288.55,-1.94,62.68,50.4502077461615,-104.617125744561
Saskatoon,2026-04-25 20:00:00+00:00,2,2,2,0,0.79,0.79,0.79,2.49,2.49,2.49,32.46,32.46,32.46,13.74,298.16,-1.62,60.88,52.1361376913645,-106.662942708646
Swift Current,2026-04-25 20:00:00+00:00,2,2,2,0,2.04,2.04,2.04,2.77,2.77,2.77,38.19,38.19,38.19,25.62,291.19,-4.77,78.55,50.2858504122844,-107.816680514048
