station,datetime,AQHI_0,AQHI_1,AQHI_2,AQHI_trend,PM25_0,PM25_1,PM25_2,NO2_0,NO2_1,NO2_2,O3_0,O3_1,O3_2,WS,WD,TEMP,RH,lat,lon
Buffalo Narrows,2026-04-24 12:00:00+00:00,2,2,2,0,2.32,2.32,2.32,0.08,0.08,0.08,44.09,44.09,44.09,23.82,344.31,-7.38,80.29,55.8347917730994,-108.40387034522
Estevan,2026-04-24 12:00:00+00:00,2,2,2,0,1.5,1.5,1.5,1.91,1.91,1.91,32.21,32.21,32.21,18.27,254.0,-1.78,65.52,49.1323647672702,-102.985002018981
Prince Albert,2026-04-24 12:00:00+00:00,2,2,2,0,0.28,0.28,0.28,1.63,1.63,1.63,37.94,37.94,37.94,9.76,326.28,-5.28,81.13,53.2019378757967,-105.751586774025
Regina,2026-04-24 12:00:00+00:00,2,2,2,0,1.39,1.39,1.39,3.55,3.55,3.55,33.24,33.24,33.24,16.8,287.17,-4.78,66.57,50.4502077461615,-104.617125744561
Saskatoon,2026-04-24 12:00:00+00:00,2,2,2,0,1.59,1.59,1.59,1.72,1.72,1.72,36.88,36.88,36.88,14.62,306.07,-5.48,76.92,52.1361376913645,-106.662942708646
Swift Current,2026-04-24 12:00:00+00:00,3,3,3,0,1.62,1.62,1.62,5.56,5.56,5.56,37.76,37.76,37.76,26.74,296.87,-6.94,90.07,50.2858504122844,-107.816680514048
