station,datetime,AQHI_0,AQHI_1,AQHI_2,AQHI_trend,PM25_0,PM25_1,PM25_2,NO2_0,NO2_1,NO2_2,O3_0,O3_1,O3_2,WS,WD,TEMP,RH,lat,lon
Buffalo Narrows,2026-04-24 19:00:00+00:00,2,2,2,0,1.72,1.72,1.72,0.28,0.28,0.28,37.48,37.48,37.48,25.87,344.73,-6.05,78.1,55.8347917730994,-108.40387034522
Estevan,2026-04-24 19:00:00+00:00,2,2,2,0,2.93,2.93,2.93,1.57,1.57,1.57,39.57,39.57,39.57,37.64,248.89,-0.66,43.34,49.1323647672702,-102.985002018981
Prince Albert,2026-04-24 19:00:00+00:00,2,2,2,0,1.37,1.37,1.37,1.14,1.14,1.14,38.13,38.13,38.13,12.82,330.68,-4.33,74.82,53.2019378757967,-105.751586774025
Regina,2026-04-24 19:00:00+00:00,2,2,2,0,1.85,1.85,1.85,2.14,2.14,2.14,33.97,33.97,33.97,20.39,281.33,-4.23,70.84,50.4502077461615,-104.617125744561
Saskatoon,2026-04-24 19:00:00+00:00,2,2,2,0,1.92,1.92,1.92,2.1,2.1,2.1,38.88,38.88,38.88,17.69,313.03,-5.62,81.75,52.1361376913645,-106.662942708646
Swift Current,2026-04-24 19:00:00+00:00,3,3,3,0,2.63,2.63,2.63,2.63,2.63,2.63,41.94,41.94,41.94,29.73,305.48,-6.46,92.5,50.2858504122844,-107.816680514048
