station,datetime,AQHI_0,AQHI_1,AQHI_2,AQHI_trend,PM25_0,PM25_1,PM25_2,NO2_0,NO2_1,NO2_2,O3_0,O3_1,O3_2,WS,WD,TEMP,RH,lat,lon
Buffalo Narrows,2026-04-26 20:00:00+00:00,2,2,2,0,1.33,1.33,1.33,0.28,0.28,0.28,34.45,34.45,34.45,11.46,342.66,-2.99,67.9,55.8347917730994,-108.40387034522
Estevan,2026-04-26 20:00:00+00:00,3,3,3,0,5.2,5.2,5.2,3.97,3.97,3.97,37.4,37.4,37.4,8.31,190.45,3.81,38.13,49.1323647672702,-102.985002018981
Prince Albert,2026-04-26 20:00:00+00:00,2,2,2,0,1.3,1.3,1.3,0.96,0.96,0.96,36.6,36.6,36.6,4.37,296.98,2.25,51.02,53.2019378757967,-105.751586774025
Regina,2026-04-26 20:00:00+00:00,2,2,2,0,3.79,3.79,3.79,2.04,2.04,2.04,33.36,33.36,33.36,12.51,288.42,-0.69,53.62,50.4502077461615,-104.617125744561
Saskatoon,2026-04-26 20:00:00+00:00,2,2,2,0,0.56,0.56,0.56,1.53,1.53,1.53,32.23,32.23,32.23,14.21,288.48,-0.21,53.51,52.1361376913645,-106.662942708646
Swift Current,2026-04-26 20:00:00+00:00,2,2,2,0,3.05,3.05,3.05,2.64,2.64,2.64,37.15,37.15,37.15,13.76,295.23,-3.41,66.54,50.2858504122844,-107.816680514048
