station,datetime,AQHI_0,AQHI_1,AQHI_2,AQHI_trend,PM25_0,PM25_1,PM25_2,NO2_0,NO2_1,NO2_2,O3_0,O3_1,O3_2,WS,WD,TEMP,RH,lat,lon
Buffalo Narrows,2026-05-01 08:00:00+00:00,2,2,2,0,3.34,3.34,3.34,0.87,0.87,0.87,34.52,34.52,34.52,1.61,165.22,2.24,58.92,55.8347917730994,-108.40387034522
Estevan,2026-05-01 08:00:00+00:00,2,2,2,0,9.48,9.48,9.48,6.11,6.11,6.11,17.01,17.01,17.01,5.02,239.46,1.19,63.67,49.1323647672702,-102.985002018981
Prince Albert,2026-05-01 08:00:00+00:00,3,3,3,0,13.19,13.19,13.19,13.16,13.16,13.16,18.69,18.69,18.69,1.69,327.21,4.81,58.04,53.2019378757967,-105.751586774025
Regina,2026-05-01 08:00:00+00:00,2,2,2,0,5.44,5.44,5.44,7.03,7.03,7.03,30.22,30.22,30.22,7.83,218.92,6.75,40.24,50.4502077461615,-104.617125744561
Saskatoon,2026-05-01 08:00:00+00:00,2,2,2,0,4.17,4.17,4.17,4.74,4.74,4.74,36.37,36.37,36.37,6.5,211.19,7.74,41.03,52.1361376913645,-106.662942708646
Swift Current,2026-05-01 08:00:00+00:00,2,2,2,0,3.3,3.3,3.3,1.79,1.79,1.79,38.39,38.39,38.39,5.62,187.74,5.76,45.3,50.2858504122844,-107.816680514048
