station,datetime,AQHI_0,AQHI_1,AQHI_2,AQHI_trend,PM25_0,PM25_1,PM25_2,NO2_0,NO2_1,NO2_2,O3_0,O3_1,O3_2,WS,WD,TEMP,RH,lat,lon
Buffalo Narrows,2026-04-28 17:00:00+00:00,2,2,2,0,3.05,3.05,3.05,0.38,0.38,0.38,33.02,33.02,33.02,5.28,21.88,1.58,57.63,55.8347917730994,-108.40387034522
Estevan,2026-04-28 17:00:00+00:00,2,2,2,0,5.67,5.67,5.67,3.29,3.29,3.29,31.42,31.42,31.42,5.8,325.41,2.48,44.1,49.1323647672702,-102.985002018981
Prince Albert,2026-04-28 17:00:00+00:00,3,3,3,0,7.14,7.14,7.14,5.99,5.99,5.99,34.58,34.58,34.58,4.08,248.87,3.59,49.25,53.2019378757967,-105.751586774025
Regina,2026-04-28 17:00:00+00:00,2,2,2,0,6.48,6.48,6.48,7.01,7.01,7.01,28.01,28.01,28.01,5.4,215.08,2.56,42.64,50.4502077461615,-104.617125744561
Saskatoon,2026-04-28 17:00:00+00:00,2,2,2,0,7.92,7.92,7.92,9.07,9.07,9.07,24.17,24.17,24.17,4.46,21.37,3.66,45.72,52.1361376913645,-106.662942708646
Swift Current,2026-04-28 17:00:00+00:00,2,2,2,0,4.45,4.45,4.45,6.22,6.22,6.22,30.03,30.03,30.03,7.79,115.83,3.9,55.28,50.2858504122844,-107.816680514048
