station,datetime,AQHI_0,AQHI_1,AQHI_2,AQHI_trend,PM25_0,PM25_1,PM25_2,NO2_0,NO2_1,NO2_2,O3_0,O3_1,O3_2,WS,WD,TEMP,RH,lat,lon
Buffalo Narrows,2026-04-30 08:00:00+00:00,2,2,2,0,2.46,2.46,2.46,0.36,0.36,0.36,42.22,42.22,42.22,7.41,193.46,3.13,47.93,55.8347917730994,-108.40387034522
Estevan,2026-04-30 08:00:00+00:00,2,2,2,0,4.68,4.68,4.68,3.87,3.87,3.87,28.34,28.34,28.34,7.43,328.24,1.89,59.33,49.1323647672702,-102.985002018981
Prince Albert,2026-04-30 08:00:00+00:00,2,2,2,0,7.79,7.79,7.79,18.64,18.64,18.64,7.68,7.68,7.68,1.44,171.96,-0.9,75.37,53.2019378757967,-105.751586774025
Regina,2026-04-30 08:00:00+00:00,2,2,2,0,4.83,4.83,4.83,12.25,12.25,12.25,21.05,21.05,21.05,3.49,348.0,0.57,57.62,50.4502077461615,-104.617125744561
Saskatoon,2026-04-30 08:00:00+00:00,2,2,2,0,4.8,4.8,4.8,4.76,4.76,4.76,28.9,28.9,28.9,9.4,196.51,2.94,61.86,52.1361376913645,-106.662942708646
Swift Current,2026-04-30 08:00:00+00:00,2,2,2,0,4.14,4.14,4.14,8.3,8.3,8.3,19.46,19.46,19.46,4.09,117.06,0.88,72.49,50.2858504122844,-107.816680514048
