station,datetime,AQHI_0,AQHI_1,AQHI_2,AQHI_trend,PM25_0,PM25_1,PM25_2,NO2_0,NO2_1,NO2_2,O3_0,O3_1,O3_2,WS,WD,TEMP,RH,lat,lon
Buffalo Narrows,2026-04-26 19:00:00+00:00,2,2,2,0,1.46,1.46,1.46,0.35,0.35,0.35,34.24,34.24,34.24,12.71,346.81,-3.46,70.45,55.8347917730994,-108.40387034522
Estevan,2026-04-26 19:00:00+00:00,2,2,2,0,3.57,3.57,3.57,3.13,3.13,3.13,38.88,38.88,38.88,7.2,250.76,3.89,36.66,49.1323647672702,-102.985002018981
Prince Albert,2026-04-26 19:00:00+00:00,2,2,2,0,1.4,1.4,1.4,1.6,1.6,1.6,36.69,36.69,36.69,3.07,316.65,1.64,56.74,53.2019378757967,-105.751586774025
Regina,2026-04-26 19:00:00+00:00,2,2,2,0,4.52,4.52,4.52,2.46,2.46,2.46,33.94,33.94,33.94,14.13,276.05,-0.92,54.99,50.4502077461615,-104.617125744561
Saskatoon,2026-04-26 19:00:00+00:00,2,2,2,0,0.82,0.82,0.82,2.04,2.04,2.04,31.84,31.84,31.84,14.7,296.34,-0.5,56.47,52.1361376913645,-106.662942708646
Swift Current,2026-04-26 19:00:00+00:00,2,2,2,0,2.76,2.76,2.76,3.17,3.17,3.17,37.03,37.03,37.03,13.55,295.09,-3.75,66.22,50.2858504122844,-107.816680514048
