station,datetime,AQHI_0,AQHI_1,AQHI_2,AQHI_trend,PM25_0,PM25_1,PM25_2,NO2_0,NO2_1,NO2_2,O3_0,O3_1,O3_2,WS,WD,TEMP,RH,lat,lon
Buffalo Narrows,2026-05-01 06:00:00+00:00,2,2,2,0,3.28,3.28,3.28,0.78,0.78,0.78,32.41,32.41,32.41,1.77,177.88,3.7,55.44,55.8347917730994,-108.40387034522
Estevan,2026-05-01 06:00:00+00:00,2,2,2,0,6.97,6.97,6.97,9.03,9.03,9.03,20.71,20.71,20.71,2.49,254.6,3.78,52.13,49.1323647672702,-102.985002018981
Prince Albert,2026-05-01 06:00:00+00:00,3,3,3,0,20.4,20.4,20.4,13.94,13.94,13.94,25.83,25.83,25.83,2.41,236.42,7.45,49.16,53.2019378757967,-105.751586774025
Regina,2026-05-01 06:00:00+00:00,3,3,3,0,7.66,7.66,7.66,13.0,13.0,13.0,26.47,26.47,26.47,6.91,189.23,8.66,38.41,50.4502077461615,-104.617125744561
Saskatoon,2026-05-01 06:00:00+00:00,3,3,3,0,4.19,4.19,4.19,3.51,3.51,3.51,41.06,41.06,41.06,8.01,197.83,10.77,33.32,52.1361376913645,-106.662942708646
Swift Current,2026-05-01 06:00:00+00:00,3,3,3,0,3.62,3.62,3.62,4.69,4.69,4.69,40.64,40.64,40.64,2.63,212.99,7.77,38.24,50.2858504122844,-107.816680514048
