station,datetime,AQHI_0,AQHI_1,AQHI_2,AQHI_trend,PM25_0,PM25_1,PM25_2,NO2_0,NO2_1,NO2_2,O3_0,O3_1,O3_2,WS,WD,TEMP,RH,lat,lon
Buffalo Narrows,2026-05-03 21:00:00+00:00,2,2,2,0,1.02,1.02,1.02,0.17,0.17,0.17,41.21,41.21,41.21,16.88,333.01,4.48,63.52,55.8347917730994,-108.40387034522
Estevan,2026-05-03 21:00:00+00:00,3,3,3,0,8.77,8.77,8.77,1.45,1.45,1.45,51.95,51.95,51.95,30.68,256.64,22.93,20.81,49.1323647672702,-102.985002018981
Prince Albert,2026-05-03 21:00:00+00:00,3,3,3,0,14.33,14.33,14.33,0.64,0.64,0.64,51.47,51.47,51.47,17.84,305.24,15.77,23.91,53.2019378757967,-105.751586774025
Regina,2026-05-03 21:00:00+00:00,2,2,2,0,3.7,3.7,3.7,1.62,1.62,1.62,40.59,40.59,40.59,19.11,318.93,21.12,21.66,50.4502077461615,-104.617125744561
Saskatoon,2026-05-03 21:00:00+00:00,3,3,3,0,5.84,5.84,5.84,1.36,1.36,1.36,48.6,48.6,48.6,23.13,309.47,17.98,23.92,52.1361376913645,-106.662942708646
Swift Current,2026-05-03 21:00:00+00:00,2,2,2,0,4.42,4.42,4.42,1.71,1.71,1.71,40.95,40.95,40.95,32.91,286.53,20.84,25.27,50.2858504122844,-107.816680514048
