station,datetime,AQHI_0,AQHI_1,AQHI_2,AQHI_trend,PM25_0,PM25_1,PM25_2,NO2_0,NO2_1,NO2_2,O3_0,O3_1,O3_2,WS,WD,TEMP,RH,lat,lon
Buffalo Narrows,2026-05-01 11:00:00+00:00,2,2,2,0,3.21,3.21,3.21,0.14,0.14,0.14,40.99,40.99,40.99,4.22,107.4,3.16,54.67,55.8347917730994,-108.40387034522
Estevan,2026-05-01 11:00:00+00:00,2,2,2,0,6.15,6.15,6.15,9.79,9.79,9.79,10.38,10.38,10.38,3.16,220.75,-0.12,62.17,49.1323647672702,-102.985002018981
Prince Albert,2026-05-01 11:00:00+00:00,2,2,2,0,8.99,8.99,8.99,12.04,12.04,12.04,16.24,16.24,16.24,2.78,87.47,1.86,68.16,53.2019378757967,-105.751586774025
Regina,2026-05-01 11:00:00+00:00,2,2,2,0,5.51,5.51,5.51,9.24,9.24,9.24,22.88,22.88,22.88,8.24,220.55,4.41,47.17,50.4502077461615,-104.617125744561
Saskatoon,2026-05-01 11:00:00+00:00,2,2,2,0,4.23,4.23,4.23,7.69,7.69,7.69,31.08,31.08,31.08,5.9,204.41,5.78,44.52,52.1361376913645,-106.662942708646
Swift Current,2026-05-01 11:00:00+00:00,2,2,2,0,3.22,3.22,3.22,2.01,2.01,2.01,37.05,37.05,37.05,6.04,201.52,4.21,49.19,50.2858504122844,-107.816680514048
