station,datetime,AQHI_0,AQHI_1,AQHI_2,AQHI_trend,PM25_0,PM25_1,PM25_2,NO2_0,NO2_1,NO2_2,O3_0,O3_1,O3_2,WS,WD,TEMP,RH,lat,lon
Buffalo Narrows,2026-04-28 22:00:00+00:00,2,2,2,0,2.81,2.81,2.81,0.33,0.33,0.33,36.79,36.79,36.79,10.76,354.78,2.34,58.05,55.8347917730994,-108.40387034522
Estevan,2026-04-28 22:00:00+00:00,2,2,2,0,5.44,5.44,5.44,3.83,3.83,3.83,35.0,35.0,35.0,6.16,272.4,7.74,32.04,49.1323647672702,-102.985002018981
Prince Albert,2026-04-28 22:00:00+00:00,3,3,3,0,5.89,5.89,5.89,1.92,1.92,1.92,43.48,43.48,43.48,6.72,327.34,6.47,38.06,53.2019378757967,-105.751586774025
Regina,2026-04-28 22:00:00+00:00,3,3,3,0,9.83,9.83,9.83,8.19,8.19,8.19,36.05,36.05,36.05,10.04,56.83,5.91,37.71,50.4502077461615,-104.617125744561
Saskatoon,2026-04-28 22:00:00+00:00,3,3,3,0,3.68,3.68,3.68,3.02,3.02,3.02,40.71,40.71,40.71,6.75,359.99,6.89,31.79,52.1361376913645,-106.662942708646
Swift Current,2026-04-28 22:00:00+00:00,2,2,2,0,4.2,4.2,4.2,4.39,4.39,4.39,36.54,36.54,36.54,7.24,292.72,9.74,35.75,50.2858504122844,-107.816680514048
