station,datetime,AQHI_0,AQHI_1,AQHI_2,AQHI_trend,PM25_0,PM25_1,PM25_2,NO2_0,NO2_1,NO2_2,O3_0,O3_1,O3_2,WS,WD,TEMP,RH,lat,lon
Buffalo Narrows,2026-04-27 01:00:00+00:00,2,2,2,0,1.14,1.14,1.14,0.26,0.26,0.26,34.28,34.28,34.28,8.92,284.22,-1.69,72.41,55.8347917730994,-108.40387034522
Estevan,2026-04-27 01:00:00+00:00,2,2,2,0,4.41,4.41,4.41,3.55,3.55,3.55,36.51,36.51,36.51,8.29,332.29,1.64,59.55,49.1323647672702,-102.985002018981
Prince Albert,2026-04-27 01:00:00+00:00,2,2,2,0,0.96,0.96,0.96,1.06,1.06,1.06,34.62,34.62,34.62,8.15,304.45,1.45,56.8,53.2019378757967,-105.751586774025
Regina,2026-04-27 01:00:00+00:00,2,2,2,0,3.29,3.29,3.29,2.49,2.49,2.49,30.11,30.11,30.11,10.6,300.11,-0.1,50.24,50.4502077461615,-104.617125744561
Saskatoon,2026-04-27 01:00:00+00:00,2,2,2,0,1.87,1.87,1.87,1.37,1.37,1.37,34.74,34.74,34.74,13.33,285.73,0.59,51.24,52.1361376913645,-106.662942708646
Swift Current,2026-04-27 01:00:00+00:00,2,2,2,0,3.6,3.6,3.6,3.62,3.62,3.62,34.19,34.19,34.19,10.77,314.42,-2.87,71.85,50.2858504122844,-107.816680514048
