station,datetime,AQHI_0,AQHI_1,AQHI_2,AQHI_trend,PM25_0,PM25_1,PM25_2,NO2_0,NO2_1,NO2_2,O3_0,O3_1,O3_2,WS,WD,TEMP,RH,lat,lon
Buffalo Narrows,2026-04-30 20:00:00+00:00,3,3,3,0,2.98,2.98,2.98,0.55,0.55,0.55,53.69,53.69,53.69,6.86,35.88,12.61,28.26,55.8347917730994,-108.40387034522
Estevan,2026-04-30 20:00:00+00:00,2,2,2,0,3.43,3.43,3.43,2.35,2.35,2.35,38.58,38.58,38.58,9.76,333.88,9.16,32.16,49.1323647672702,-102.985002018981
Prince Albert,2026-04-30 20:00:00+00:00,3,3,3,0,8.83,8.83,8.83,2.38,2.38,2.38,50.69,50.69,50.69,10.42,263.42,15.28,25.05,53.2019378757967,-105.751586774025
Regina,2026-04-30 20:00:00+00:00,3,3,3,0,3.64,3.64,3.64,1.71,1.71,1.71,44.08,44.08,44.08,12.14,314.55,11.95,25.66,50.4502077461615,-104.617125744561
Saskatoon,2026-04-30 20:00:00+00:00,3,3,3,0,4.15,4.15,4.15,3.16,3.16,3.16,45.65,45.65,45.65,7.98,306.98,15.8,21.09,52.1361376913645,-106.662942708646
Swift Current,2026-04-30 20:00:00+00:00,3,3,3,0,3.81,3.81,3.81,3.2,3.2,3.2,48.64,48.64,48.64,6.13,298.83,13.47,20.84,50.2858504122844,-107.816680514048
