station,datetime,AQHI_0,AQHI_1,AQHI_2,AQHI_trend,PM25_0,PM25_1,PM25_2,NO2_0,NO2_1,NO2_2,O3_0,O3_1,O3_2,WS,WD,TEMP,RH,lat,lon
Buffalo Narrows,2026-04-29 22:00:00+00:00,3,3,3,0,2.52,2.52,2.52,0.47,0.47,0.47,45.9,45.9,45.9,6.61,27.06,7.59,32.65,55.8347917730994,-108.40387034522
Estevan,2026-04-29 22:00:00+00:00,3,3,3,0,4.34,4.34,4.34,2.52,2.52,2.52,40.0,40.0,40.0,9.11,308.81,7.86,29.95,49.1323647672702,-102.985002018981
Prince Albert,2026-04-29 22:00:00+00:00,3,3,3,0,6.94,6.94,6.94,3.31,3.31,3.31,39.2,39.2,39.2,7.22,194.02,7.65,40.01,53.2019378757967,-105.751586774025
Regina,2026-04-29 22:00:00+00:00,3,3,3,0,4.4,4.4,4.4,2.13,2.13,2.13,40.78,40.78,40.78,19.42,298.36,10.13,33.51,50.4502077461615,-104.617125744561
Saskatoon,2026-04-29 22:00:00+00:00,3,3,3,0,7.48,7.48,7.48,3.11,3.11,3.11,43.36,43.36,43.36,11.55,348.39,12.29,32.27,52.1361376913645,-106.662942708646
Swift Current,2026-04-29 22:00:00+00:00,3,3,3,0,4.17,4.17,4.17,3.71,3.71,3.71,42.11,42.11,42.11,8.61,321.08,11.08,28.32,50.2858504122844,-107.816680514048
