station,datetime,AQHI_0,AQHI_1,AQHI_2,AQHI_trend,PM25_0,PM25_1,PM25_2,NO2_0,NO2_1,NO2_2,O3_0,O3_1,O3_2,WS,WD,TEMP,RH,lat,lon
Buffalo Narrows,2026-05-02 01:00:00+00:00,3,3,3,0,3.95,3.95,3.95,0.62,0.62,0.62,50.18,50.18,50.18,4.07,176.9,13.42,35.45,55.8347917730994,-108.40387034522
Estevan,2026-05-02 01:00:00+00:00,3,3,3,0,5.61,5.61,5.61,3.07,3.07,3.07,48.85,48.85,48.85,13.9,222.87,19.16,16.77,49.1323647672702,-102.985002018981
Prince Albert,2026-05-02 01:00:00+00:00,3,3,3,0,11.66,11.66,11.66,2.05,2.05,2.05,43.92,43.92,43.92,9.98,91.03,11.69,55.99,53.2019378757967,-105.751586774025
Regina,2026-05-02 01:00:00+00:00,3,3,3,0,5.72,5.72,5.72,2.82,2.82,2.82,48.39,48.39,48.39,11.3,249.9,20.71,15.01,50.4502077461615,-104.617125744561
Saskatoon,2026-05-02 01:00:00+00:00,4,4,4,0,13.8,13.8,13.8,2.07,2.07,2.07,53.04,53.04,53.04,20.1,302.72,22.71,19.15,52.1361376913645,-106.662942708646
Swift Current,2026-05-02 01:00:00+00:00,3,3,3,0,6.06,6.06,6.06,3.88,3.88,3.88,50.37,50.37,50.37,15.04,261.54,23.01,15.2,50.2858504122844,-107.816680514048
