station,datetime,AQHI_0,AQHI_1,AQHI_2,AQHI_trend,PM25_0,PM25_1,PM25_2,NO2_0,NO2_1,NO2_2,O3_0,O3_1,O3_2,WS,WD,TEMP,RH,lat,lon
Buffalo Narrows,2026-04-24 20:00:00+00:00,2,2,2,0,1.45,1.45,1.45,0.23,0.23,0.23,35.55,35.55,35.55,26.32,344.93,-5.47,78.82,55.8347917730994,-108.40387034522
Estevan,2026-04-24 20:00:00+00:00,2,2,2,0,3.25,3.25,3.25,1.33,1.33,1.33,39.48,39.48,39.48,37.06,250.44,-0.69,42.73,49.1323647672702,-102.985002018981
Prince Albert,2026-04-24 20:00:00+00:00,2,2,2,0,1.57,1.57,1.57,1.36,1.36,1.36,38.33,38.33,38.33,14.29,333.77,-4.32,72.87,53.2019378757967,-105.751586774025
Regina,2026-04-24 20:00:00+00:00,2,2,2,0,1.72,1.72,1.72,2.27,2.27,2.27,33.98,33.98,33.98,20.87,283.42,-4.1,71.09,50.4502077461615,-104.617125744561
Saskatoon,2026-04-24 20:00:00+00:00,2,2,2,0,1.96,1.96,1.96,2.74,2.74,2.74,37.8,37.8,37.8,17.44,310.95,-5.35,81.99,52.1361376913645,-106.662942708646
Swift Current,2026-04-24 20:00:00+00:00,3,3,3,0,2.66,2.66,2.66,3.41,3.41,3.41,42.02,42.02,42.02,26.4,307.04,-6.25,88.34,50.2858504122844,-107.816680514048
