station,datetime,AQHI_0,AQHI_1,AQHI_2,AQHI_trend,PM25_0,PM25_1,PM25_2,NO2_0,NO2_1,NO2_2,O3_0,O3_1,O3_2,WS,WD,TEMP,RH,lat,lon
Buffalo Narrows,2026-04-26 21:00:00+00:00,2,2,2,0,1.21,1.21,1.21,0.37,0.37,0.37,34.67,34.67,34.67,10.92,327.77,-2.2,65.76,55.8347917730994,-108.40387034522
Estevan,2026-04-26 21:00:00+00:00,3,3,3,0,5.5,5.5,5.5,4.78,4.78,4.78,37.33,37.33,37.33,7.89,176.05,3.47,40.9,49.1323647672702,-102.985002018981
Prince Albert,2026-04-26 21:00:00+00:00,2,2,2,0,1.37,1.37,1.37,1.58,1.58,1.58,36.33,36.33,36.33,5.51,259.65,1.99,54.06,53.2019378757967,-105.751586774025
Regina,2026-04-26 21:00:00+00:00,2,2,2,0,3.77,3.77,3.77,1.57,1.57,1.57,33.43,33.43,33.43,13.06,296.3,-0.21,51.71,50.4502077461615,-104.617125744561
Saskatoon,2026-04-26 21:00:00+00:00,2,2,2,0,0.82,0.82,0.82,1.56,1.56,1.56,32.37,32.37,32.37,13.49,282.79,0.18,51.87,52.1361376913645,-106.662942708646
Swift Current,2026-04-26 21:00:00+00:00,2,2,2,0,3.57,3.57,3.57,3.27,3.27,3.27,36.67,36.67,36.67,12.67,306.51,-2.7,65.7,50.2858504122844,-107.816680514048
