station,datetime,AQHI_0,AQHI_1,AQHI_2,AQHI_trend,PM25_0,PM25_1,PM25_2,NO2_0,NO2_1,NO2_2,O3_0,O3_1,O3_2,WS,WD,TEMP,RH,lat,lon
Buffalo Narrows,2026-04-29 09:00:00+00:00,2,2,2,0,2.86,2.86,2.86,0.5,0.5,0.5,26.49,26.49,26.49,1.63,193.15,-3.51,71.05,55.8347917730994,-108.40387034522
Estevan,2026-04-29 09:00:00+00:00,2,2,2,0,5.36,5.36,5.36,8.61,8.61,8.61,15.95,15.95,15.95,3.92,53.01,-2.07,61.62,49.1323647672702,-102.985002018981
Prince Albert,2026-04-29 09:00:00+00:00,2,2,2,0,3.97,3.97,3.97,4.45,4.45,4.45,36.75,36.75,36.75,5.23,274.19,2.82,54.58,53.2019378757967,-105.751586774025
Regina,2026-04-29 09:00:00+00:00,3,3,3,0,6.43,6.43,6.43,21.47,21.47,21.47,15.98,15.98,15.98,4.04,232.16,0.44,54.7,50.4502077461615,-104.617125744561
Saskatoon,2026-04-29 09:00:00+00:00,2,2,2,0,3.72,3.72,3.72,5.44,5.44,5.44,26.86,26.86,26.86,8.42,209.47,1.65,59.33,52.1361376913645,-106.662942708646
Swift Current,2026-04-29 09:00:00+00:00,2,2,2,0,3.87,3.87,3.87,11.21,11.21,11.21,19.1,19.1,19.1,2.16,250.17,-0.98,71.82,50.2858504122844,-107.816680514048
