station,datetime,AQHI_0,AQHI_1,AQHI_2,AQHI_trend,PM25_0,PM25_1,PM25_2,NO2_0,NO2_1,NO2_2,O3_0,O3_1,O3_2,WS,WD,TEMP,RH,lat,lon
Buffalo Narrows,2026-04-24 23:00:00+00:00,2,2,2,0,1.67,1.67,1.67,0.15,0.15,0.15,36.73,36.73,36.73,21.17,353.56,-5.61,81.15,55.8347917730994,-108.40387034522
Estevan,2026-04-24 23:00:00+00:00,2,2,2,0,1.82,1.82,1.82,1.55,1.55,1.55,38.78,38.78,38.78,30.22,250.35,-0.88,44.5,49.1323647672702,-102.985002018981
Prince Albert,2026-04-24 23:00:00+00:00,2,2,2,0,1.14,1.14,1.14,1.34,1.34,1.34,36.98,36.98,36.98,11.96,332.17,-4.01,73.15,53.2019378757967,-105.751586774025
Regina,2026-04-24 23:00:00+00:00,2,2,2,0,1.73,1.73,1.73,2.65,2.65,2.65,35.26,35.26,35.26,18.87,282.32,-3.91,68.56,50.4502077461615,-104.617125744561
Saskatoon,2026-04-24 23:00:00+00:00,2,2,2,0,1.92,1.92,1.92,1.66,1.66,1.66,36.76,36.76,36.76,18.83,313.67,-5.09,79.91,52.1361376913645,-106.662942708646
Swift Current,2026-04-24 23:00:00+00:00,3,3,3,0,2.38,2.38,2.38,2.66,2.66,2.66,42.32,42.32,42.32,22.71,312.06,-5.85,90.71,50.2858504122844,-107.816680514048
