station,datetime,AQHI_0,AQHI_1,AQHI_2,AQHI_trend,PM25_0,PM25_1,PM25_2,NO2_0,NO2_1,NO2_2,O3_0,O3_1,O3_2,WS,WD,TEMP,RH,lat,lon
Buffalo Narrows,2026-04-26 15:00:00+00:00,2,2,2,0,1.73,1.73,1.73,0.2,0.2,0.2,34.03,34.03,34.03,15.17,343.19,-5.82,75.98,55.8347917730994,-108.40387034522
Estevan,2026-04-26 15:00:00+00:00,2,2,2,0,3.66,3.66,3.66,2.7,2.7,2.7,32.19,32.19,32.19,10.44,250.63,-1.71,59.41,49.1323647672702,-102.985002018981
Prince Albert,2026-04-26 15:00:00+00:00,2,2,2,0,2.65,2.65,2.65,4.57,4.57,4.57,32.78,32.78,32.78,1.89,144.43,-2.77,74.68,53.2019378757967,-105.751586774025
Regina,2026-04-26 15:00:00+00:00,2,2,2,0,4.28,4.28,4.28,3.47,3.47,3.47,27.18,27.18,27.18,14.52,269.95,-3.85,71.62,50.4502077461615,-104.617125744561
Saskatoon,2026-04-26 15:00:00+00:00,2,2,2,0,1.81,1.81,1.81,3.23,3.23,3.23,29.02,29.02,29.02,11.3,279.21,-2.79,72.61,52.1361376913645,-106.662942708646
Swift Current,2026-04-26 15:00:00+00:00,3,3,3,0,3.56,3.56,3.56,10.71,10.71,10.71,30.03,30.03,30.03,9.7,261.5,-6.32,92.51,50.2858504122844,-107.816680514048
