station,datetime,AQHI_0,AQHI_1,AQHI_2,AQHI_trend,PM25_0,PM25_1,PM25_2,NO2_0,NO2_1,NO2_2,O3_0,O3_1,O3_2,WS,WD,TEMP,RH,lat,lon
Buffalo Narrows,2026-04-24 09:00:00+00:00,2,2,2,0,1.97,1.97,1.97,0.09,0.09,0.09,41.93,41.93,41.93,23.48,344.4,-6.67,81.21,55.8347917730994,-108.40387034522
Estevan,2026-04-24 09:00:00+00:00,2,2,2,0,1.2,1.2,1.2,2.12,2.12,2.12,28.06,28.06,28.06,19.33,252.24,-0.92,66.33,49.1323647672702,-102.985002018981
Prince Albert,2026-04-24 09:00:00+00:00,2,2,2,0,1.03,1.03,1.03,1.29,1.29,1.29,38.47,38.47,38.47,10.78,321.38,-5.27,77.06,53.2019378757967,-105.751586774025
Regina,2026-04-24 09:00:00+00:00,2,2,2,0,0.84,0.84,0.84,1.77,1.77,1.77,32.65,32.65,32.65,17.66,290.28,-3.72,65.53,50.4502077461615,-104.617125744561
Saskatoon,2026-04-24 09:00:00+00:00,2,2,2,0,1.35,1.35,1.35,1.88,1.88,1.88,36.88,36.88,36.88,14.46,298.7,-4.36,69.49,52.1361376913645,-106.662942708646
Swift Current,2026-04-24 09:00:00+00:00,2,2,2,0,0.85,0.85,0.85,1.86,1.86,1.86,40.83,40.83,40.83,26.76,295.72,-5.62,87.55,50.2858504122844,-107.816680514048
