station,datetime,AQHI_0,AQHI_1,AQHI_2,AQHI_trend,PM25_0,PM25_1,PM25_2,NO2_0,NO2_1,NO2_2,O3_0,O3_1,O3_2,WS,WD,TEMP,RH,lat,lon
Buffalo Narrows,2026-04-26 16:00:00+00:00,2,2,2,0,1.84,1.84,1.84,0.21,0.21,0.21,34.32,34.32,34.32,14.89,344.89,-5.54,75.44,55.8347917730994,-108.40387034522
Estevan,2026-04-26 16:00:00+00:00,2,2,2,0,3.41,3.41,3.41,2.03,2.03,2.03,37.63,37.63,37.63,10.79,241.82,0.11,49.18,49.1323647672702,-102.985002018981
Prince Albert,2026-04-26 16:00:00+00:00,2,2,2,0,2.81,2.81,2.81,5.33,5.33,5.33,34.48,34.48,34.48,2.74,273.89,-1.18,69.25,53.2019378757967,-105.751586774025
Regina,2026-04-26 16:00:00+00:00,2,2,2,0,4.06,4.06,4.06,2.09,2.09,2.09,30.64,30.64,30.64,12.25,276.59,-2.48,65.93,50.4502077461615,-104.617125744561
Saskatoon,2026-04-26 16:00:00+00:00,2,2,2,0,1.74,1.74,1.74,1.76,1.76,1.76,30.98,30.98,30.98,13.9,286.79,-1.96,68.16,52.1361376913645,-106.662942708646
Swift Current,2026-04-26 16:00:00+00:00,2,2,2,0,3.31,3.31,3.31,6.12,6.12,6.12,32.89,32.89,32.89,10.89,265.09,-5.48,86.9,50.2858504122844,-107.816680514048
