station,datetime,AQHI_0,AQHI_1,AQHI_2,AQHI_trend,PM25_0,PM25_1,PM25_2,NO2_0,NO2_1,NO2_2,O3_0,O3_1,O3_2,WS,WD,TEMP,RH,lat,lon
Buffalo Narrows,2026-04-27 19:00:00+00:00,2,2,2,0,0.45,0.45,0.45,0.52,0.52,0.52,35.04,35.04,35.04,7.78,5.23,-3.03,61.28,55.8347917730994,-108.40387034522
Estevan,2026-04-27 19:00:00+00:00,2,2,2,0,2.85,2.85,2.85,2.45,2.45,2.45,32.83,32.83,32.83,10.3,310.21,3.52,37.34,49.1323647672702,-102.985002018981
Prince Albert,2026-04-27 19:00:00+00:00,3,3,3,0,6.79,6.79,6.79,4.2,4.2,4.2,35.26,35.26,35.26,7.0,259.77,1.15,56.18,53.2019378757967,-105.751586774025
Regina,2026-04-27 19:00:00+00:00,2,2,2,0,3.73,3.73,3.73,2.35,2.35,2.35,31.43,31.43,31.43,9.12,312.08,0.51,45.22,50.4502077461615,-104.617125744561
Saskatoon,2026-04-27 19:00:00+00:00,2,2,2,0,3.64,3.64,3.64,3.46,3.46,3.46,34.57,34.57,34.57,7.14,211.01,0.87,47.69,52.1361376913645,-106.662942708646
Swift Current,2026-04-27 19:00:00+00:00,2,2,2,0,3.28,3.28,3.28,4.86,4.86,4.86,32.33,32.33,32.33,6.49,223.53,-1.33,52.19,50.2858504122844,-107.816680514048
