station,datetime,AQHI_0,AQHI_1,AQHI_2,AQHI_trend,PM25_0,PM25_1,PM25_2,NO2_0,NO2_1,NO2_2,O3_0,O3_1,O3_2,WS,WD,TEMP,RH,lat,lon
Buffalo Narrows,2026-04-27 21:00:00+00:00,2,2,2,0,0.62,0.62,0.62,0.26,0.26,0.26,35.88,35.88,35.88,8.22,6.65,-1.82,59.3,55.8347917730994,-108.40387034522
Estevan,2026-04-27 21:00:00+00:00,2,2,2,0,3.92,3.92,3.92,2.41,2.41,2.41,33.68,33.68,33.68,11.72,308.9,4.95,34.11,49.1323647672702,-102.985002018981
Prince Albert,2026-04-27 21:00:00+00:00,3,3,3,0,5.07,5.07,5.07,4.16,4.16,4.16,37.01,37.01,37.01,7.22,267.91,2.12,51.45,53.2019378757967,-105.751586774025
Regina,2026-04-27 21:00:00+00:00,2,2,2,0,3.77,3.77,3.77,2.37,2.37,2.37,32.11,32.11,32.11,9.43,322.06,1.19,43.05,50.4502077461615,-104.617125744561
Saskatoon,2026-04-27 21:00:00+00:00,2,2,2,0,3.77,3.77,3.77,2.68,2.68,2.68,36.29,36.29,36.29,7.46,220.95,1.95,44.24,52.1361376913645,-106.662942708646
Swift Current,2026-04-27 21:00:00+00:00,2,2,2,0,3.54,3.54,3.54,4.29,4.29,4.29,32.72,32.72,32.72,5.38,222.92,0.07,51.16,50.2858504122844,-107.816680514048
