station,datetime,AQHI_0,AQHI_1,AQHI_2,AQHI_trend,PM25_0,PM25_1,PM25_2,NO2_0,NO2_1,NO2_2,O3_0,O3_1,O3_2,WS,WD,TEMP,RH,lat,lon
Buffalo Narrows,2026-05-01 02:00:00+00:00,3,3,3,0,3.09,3.09,3.09,0.36,0.36,0.36,49.84,49.84,49.84,2.26,349.35,12.47,32.97,55.8347917730994,-108.40387034522
Estevan,2026-05-01 02:00:00+00:00,3,3,3,0,4.56,4.56,4.56,4.94,4.94,4.94,40.91,40.91,40.91,4.73,297.09,12.03,24.56,49.1323647672702,-102.985002018981
Prince Albert,2026-05-01 02:00:00+00:00,3,3,3,0,9.96,9.96,9.96,4.41,4.41,4.41,48.4,48.4,48.4,4.86,257.07,15.4,27.68,53.2019378757967,-105.751586774025
Regina,2026-05-01 02:00:00+00:00,3,3,3,0,4.61,4.61,4.61,1.78,1.78,1.78,42.95,42.95,42.95,8.93,13.68,13.29,25.99,50.4502077461615,-104.617125744561
Saskatoon,2026-05-01 02:00:00+00:00,3,3,3,0,4.45,4.45,4.45,3.81,3.81,3.81,48.94,48.94,48.94,8.19,246.01,16.99,20.01,52.1361376913645,-106.662942708646
Swift Current,2026-05-01 02:00:00+00:00,3,3,3,0,4.17,4.17,4.17,2.72,2.72,2.72,54.05,54.05,54.05,5.86,64.62,14.02,17.43,50.2858504122844,-107.816680514048
