station,datetime,AQHI_0,AQHI_1,AQHI_2,AQHI_trend,PM25_0,PM25_1,PM25_2,NO2_0,NO2_1,NO2_2,O3_0,O3_1,O3_2,WS,WD,TEMP,RH,lat,lon
Buffalo Narrows,2026-05-02 21:00:00+00:00,2,2,2,0,1.2,1.2,1.2,0.24,0.24,0.24,44.91,44.91,44.91,6.33,340.08,11.6,31.88,55.8347917730994,-108.40387034522
Estevan,2026-05-02 21:00:00+00:00,3,3,3,0,5.18,5.18,5.18,1.39,1.39,1.39,50.18,50.18,50.18,19.55,326.65,18.0,28.23,49.1323647672702,-102.985002018981
Prince Albert,2026-05-02 21:00:00+00:00,3,3,3,0,6.2,6.2,6.2,0.73,0.73,0.73,43.25,43.25,43.25,12.12,319.32,16.14,28.23,53.2019378757967,-105.751586774025
Regina,2026-05-02 21:00:00+00:00,2,2,2,0,3.21,3.21,3.21,1.03,1.03,1.03,40.4,40.4,40.4,19.97,345.59,16.5,23.38,50.4502077461615,-104.617125744561
Saskatoon,2026-05-02 21:00:00+00:00,3,3,3,0,3.97,3.97,3.97,1.46,1.46,1.46,43.44,43.44,43.44,15.72,302.32,18.7,22.65,52.1361376913645,-106.662942708646
Swift Current,2026-05-02 21:00:00+00:00,3,3,3,0,3.23,3.23,3.23,3.04,3.04,3.04,43.11,43.11,43.11,10.09,313.23,17.42,27.68,50.2858504122844,-107.816680514048
