station,datetime,AQHI_0,AQHI_1,AQHI_2,AQHI_trend,PM25_0,PM25_1,PM25_2,NO2_0,NO2_1,NO2_2,O3_0,O3_1,O3_2,WS,WD,TEMP,RH,lat,lon
Buffalo Narrows,2026-04-26 22:00:00+00:00,2,2,2,0,1.08,1.08,1.08,0.24,0.24,0.24,35.01,35.01,35.01,11.84,326.5,-1.82,64.95,55.8347917730994,-108.40387034522
Estevan,2026-04-26 22:00:00+00:00,3,3,3,0,6.27,6.27,6.27,7.09,7.09,7.09,35.43,35.43,35.43,7.65,132.11,2.87,48.52,49.1323647672702,-102.985002018981
Prince Albert,2026-04-26 22:00:00+00:00,2,2,2,0,1.39,1.39,1.39,1.14,1.14,1.14,37.29,37.29,37.29,6.43,305.42,1.68,51.51,53.2019378757967,-105.751586774025
Regina,2026-04-26 22:00:00+00:00,2,2,2,0,3.76,3.76,3.76,1.77,1.77,1.77,33.52,33.52,33.52,11.51,291.17,0.05,49.03,50.4502077461615,-104.617125744561
Saskatoon,2026-04-26 22:00:00+00:00,2,2,2,0,1.2,1.2,1.2,2.32,2.32,2.32,32.71,32.71,32.71,13.42,283.61,0.46,51.68,52.1361376913645,-106.662942708646
Swift Current,2026-04-26 22:00:00+00:00,2,2,2,0,4.15,4.15,4.15,3.46,3.46,3.46,35.85,35.85,35.85,11.42,308.45,-2.67,67.13,50.2858504122844,-107.816680514048
