station,datetime,AQHI_0,AQHI_1,AQHI_2,AQHI_trend,PM25_0,PM25_1,PM25_2,NO2_0,NO2_1,NO2_2,O3_0,O3_1,O3_2,WS,WD,TEMP,RH,lat,lon
Buffalo Narrows,2026-05-01 05:00:00+00:00,2,2,2,0,3.23,3.23,3.23,0.44,0.44,0.44,41.4,41.4,41.4,1.43,165.84,5.79,50.4,55.8347917730994,-108.40387034522
Estevan,2026-05-01 05:00:00+00:00,3,3,3,0,14.97,14.97,14.97,11.32,11.32,11.32,21.44,21.44,21.44,3.87,276.04,6.01,41.03,49.1323647672702,-102.985002018981
Prince Albert,2026-05-01 05:00:00+00:00,4,4,4,0,20.5,20.5,20.5,12.97,12.97,12.97,28.01,28.01,28.01,2.58,304.33,8.43,46.92,53.2019378757967,-105.751586774025
Regina,2026-05-01 05:00:00+00:00,3,3,3,0,10.5,10.5,10.5,15.33,15.33,15.33,24.93,24.93,24.93,6.48,191.45,9.82,35.08,50.4502077461615,-104.617125744561
Saskatoon,2026-05-01 05:00:00+00:00,3,3,3,0,5.0,5.0,5.0,4.46,4.46,4.46,41.11,41.11,41.11,7.68,192.18,12.12,30.79,52.1361376913645,-106.662942708646
Swift Current,2026-05-01 05:00:00+00:00,3,3,3,0,4.93,4.93,4.93,5.34,5.34,5.34,41.13,41.13,41.13,4.45,128.77,9.25,33.77,50.2858504122844,-107.816680514048
