station,datetime,AQHI_0,AQHI_1,AQHI_2,AQHI_trend,PM25_0,PM25_1,PM25_2,NO2_0,NO2_1,NO2_2,O3_0,O3_1,O3_2,WS,WD,TEMP,RH,lat,lon
Buffalo Narrows,2026-04-25 15:00:00+00:00,2,2,2,0,1.21,1.21,1.21,0.21,0.21,0.21,32.56,32.56,32.56,15.66,342.97,-6.7,79.4,55.8347917730994,-108.40387034522
Estevan,2026-04-25 15:00:00+00:00,2,2,2,0,2.27,2.27,2.27,1.24,1.24,1.24,32.68,32.68,32.68,28.97,249.77,-4.2,56.04,49.1323647672702,-102.985002018981
Prince Albert,2026-04-25 15:00:00+00:00,2,2,2,0,1.71,1.71,1.71,1.81,1.81,1.81,33.95,33.95,33.95,7.69,337.5,-3.03,72.14,53.2019378757967,-105.751586774025
Regina,2026-04-25 15:00:00+00:00,2,2,2,0,2.36,2.36,2.36,2.06,2.06,2.06,29.62,29.62,29.62,23.77,265.17,-5.6,69.96,50.4502077461615,-104.617125744561
Saskatoon,2026-04-25 15:00:00+00:00,2,2,2,0,0.52,0.52,0.52,2.62,2.62,2.62,31.89,31.89,31.89,15.45,333.97,-4.68,74.8,52.1361376913645,-106.662942708646
Swift Current,2026-04-25 15:00:00+00:00,2,2,2,0,1.76,1.76,1.76,3.15,3.15,3.15,36.16,36.16,36.16,24.1,286.55,-6.98,94.92,50.2858504122844,-107.816680514048
