station,datetime,AQHI_0,AQHI_1,AQHI_2,AQHI_trend,PM25_0,PM25_1,PM25_2,NO2_0,NO2_1,NO2_2,O3_0,O3_1,O3_2,WS,WD,TEMP,RH,lat,lon
Buffalo Narrows,2026-05-03 22:00:00+00:00,2,2,2,0,1.32,1.32,1.32,0.22,0.22,0.22,40.34,40.34,40.34,16.12,324.8,4.46,63.97,55.8347917730994,-108.40387034522
Estevan,2026-05-03 22:00:00+00:00,3,3,3,0,8.83,8.83,8.83,1.24,1.24,1.24,53.33,53.33,53.33,31.81,254.86,23.4,19.62,49.1323647672702,-102.985002018981
Prince Albert,2026-05-03 22:00:00+00:00,3,3,3,0,11.34,11.34,11.34,0.41,0.41,0.41,51.07,51.07,51.07,23.0,322.39,15.07,25.64,53.2019378757967,-105.751586774025
Regina,2026-05-03 22:00:00+00:00,3,3,3,0,5.62,5.62,5.62,1.39,1.39,1.39,41.62,41.62,41.62,25.59,303.14,21.51,21.98,50.4502077461615,-104.617125744561
Saskatoon,2026-05-03 22:00:00+00:00,3,3,3,0,11.92,11.92,11.92,1.42,1.42,1.42,48.69,48.69,48.69,27.11,319.56,17.18,22.49,52.1361376913645,-106.662942708646
Swift Current,2026-05-03 22:00:00+00:00,3,3,3,0,5.72,5.72,5.72,1.84,1.84,1.84,41.71,41.71,41.71,34.36,295.88,21.64,22.94,50.2858504122844,-107.816680514048
