station,datetime,AQHI_0,AQHI_1,AQHI_2,AQHI_trend,PM25_0,PM25_1,PM25_2,NO2_0,NO2_1,NO2_2,O3_0,O3_1,O3_2,WS,WD,TEMP,RH,lat,lon
Buffalo Narrows,2026-04-24 16:00:00+00:00,2.0,2.0,2.0,0,2.34,2.34,2.34,0.28,0.28,0.28,42.22,42.22,42.22,27.09,344.2,-7.11,79.34,55.8347917730994,-108.40387034522
Estevan,2026-04-24 16:00:00+00:00,2.0,2.0,2.0,0,1.45,1.45,1.45,1.57,1.57,1.57,38.87,38.87,38.87,35.34,243.09,-1.44,49.08,49.1323647672702,-102.985002018981
Prince Albert,2026-04-24 16:00:00+00:00,2.0,2.0,2.0,0,1.44,1.44,1.44,1.55,1.55,1.55,40.13,40.13,40.13,13.29,330.07,-5.75,78.07,53.2019378757967,-105.751586774025
Regina,2026-04-24 16:00:00+00:00,2.0,2.0,2.0,0,1.85,1.85,1.85,2.95,2.95,2.95,31.98,31.98,31.98,22.6,274.07,-4.59,70.45,50.4502077461615,-104.617125744561
Saskatoon,2026-04-24 16:00:00+00:00,,,,0,1.42,1.42,1.42,,,,,,,17.52,312.18,-5.69,81.42,52.1361376913645,-106.662942708646
Swift Current,2026-04-24 16:00:00+00:00,2.0,2.0,2.0,0,1.87,1.87,1.87,3.12,3.12,3.12,39.48,39.48,39.48,30.94,298.23,-6.51,85.57,50.2858504122844,-107.816680514048
