station,datetime,AQHI_0,AQHI_1,AQHI_2,AQHI_trend,PM25_0,PM25_1,PM25_2,NO2_0,NO2_1,NO2_2,O3_0,O3_1,O3_2,WS,WD,TEMP,RH,lat,lon
Buffalo Narrows,2026-04-26 07:00:00+00:00,2,2,2,0,1.51,1.51,1.51,0.06,0.06,0.06,32.8,32.8,32.8,16.32,344.63,-5.26,79.57,55.8347917730994,-108.40387034522
Estevan,2026-04-26 07:00:00+00:00,2,2,2,0,2.59,2.59,2.59,5.08,5.08,5.08,21.6,21.6,21.6,3.53,229.35,-4.12,63.05,49.1323647672702,-102.985002018981
Prince Albert,2026-04-26 07:00:00+00:00,2,2,2,0,2.01,2.01,2.01,2.53,2.53,2.53,34.3,34.3,34.3,3.27,356.13,-2.86,81.44,53.2019378757967,-105.751586774025
Regina,2026-04-26 07:00:00+00:00,2,2,2,0,3.3,3.3,3.3,2.51,2.51,2.51,27.16,27.16,27.16,12.52,251.35,-3.2,74.06,50.4502077461615,-104.617125744561
Saskatoon,2026-04-26 07:00:00+00:00,2,2,2,0,0.83,0.83,0.83,5.76,5.76,5.76,27.14,27.14,27.14,6.81,255.19,-3.36,76.71,52.1361376913645,-106.662942708646
Swift Current,2026-04-26 07:00:00+00:00,3,3,3,0,2.97,2.97,2.97,11.87,11.87,11.87,28.84,28.84,28.84,8.78,266.97,-5.69,92.32,50.2858504122844,-107.816680514048
