station,datetime,AQHI_0,AQHI_1,AQHI_2,AQHI_trend,PM25_0,PM25_1,PM25_2,NO2_0,NO2_1,NO2_2,O3_0,O3_1,O3_2,WS,WD,TEMP,RH,lat,lon
Buffalo Narrows,2026-04-24 17:00:00+00:00,2,2,2,0,2.15,2.15,2.15,0.27,0.27,0.27,41.04,41.04,41.04,25.91,345.54,-6.93,78.83,55.8347917730994,-108.40387034522
Estevan,2026-04-24 17:00:00+00:00,2,2,2,0,2.04,2.04,2.04,1.63,1.63,1.63,39.57,39.57,39.57,36.1,240.89,-1.22,46.67,49.1323647672702,-102.985002018981
Prince Albert,2026-04-24 17:00:00+00:00,2,2,2,0,1.35,1.35,1.35,1.21,1.21,1.21,39.1,39.1,39.1,12.29,327.81,-5.6,79.06,53.2019378757967,-105.751586774025
Regina,2026-04-24 17:00:00+00:00,2,2,2,0,1.85,1.85,1.85,3.03,3.03,3.03,32.77,32.77,32.77,22.17,273.28,-4.43,70.16,50.4502077461615,-104.617125744561
Saskatoon,2026-04-24 17:00:00+00:00,2,2,2,0,1.8,1.8,1.8,3.15,3.15,3.15,37.76,37.76,37.76,17.36,316.3,-5.84,81.9,52.1361376913645,-106.662942708646
Swift Current,2026-04-24 17:00:00+00:00,2,2,2,0,2.24,2.24,2.24,2.67,2.67,2.67,39.83,39.83,39.83,28.64,299.89,-6.34,87.93,50.2858504122844,-107.816680514048
