station,datetime,AQHI_0,AQHI_1,AQHI_2,AQHI_trend,PM25_0,PM25_1,PM25_2,NO2_0,NO2_1,NO2_2,O3_0,O3_1,O3_2,WS,WD,TEMP,RH,lat,lon
Buffalo Narrows,2026-04-30 13:00:00+00:00,2,2,2,0,2.46,2.46,2.46,0.22,0.22,0.22,43.06,43.06,43.06,15.35,219.06,2.79,49.57,55.8347917730994,-108.40387034522
Estevan,2026-04-30 13:00:00+00:00,2,2,2,0,4.8,4.8,4.8,7.16,7.16,7.16,15.9,15.9,15.9,4.2,328.26,-2.42,68.47,49.1323647672702,-102.985002018981
Prince Albert,2026-04-30 13:00:00+00:00,2,2,2,0,6.82,6.82,6.82,10.95,10.95,10.95,11.13,11.13,11.13,2.51,312.11,-1.69,76.07,53.2019378757967,-105.751586774025
Regina,2026-04-30 13:00:00+00:00,3,3,3,0,10.79,10.79,10.79,27.5,27.5,27.5,4.57,4.57,4.57,1.94,336.52,-1.03,64.29,50.4502077461615,-104.617125744561
Saskatoon,2026-04-30 13:00:00+00:00,2,2,2,0,5.32,5.32,5.32,7.48,7.48,7.48,14.98,14.98,14.98,6.65,197.32,-0.38,75.08,52.1361376913645,-106.662942708646
Swift Current,2026-04-30 13:00:00+00:00,2,2,2,0,4.92,4.92,4.92,6.44,6.44,6.44,20.19,20.19,20.19,3.65,162.74,-0.67,73.36,50.2858504122844,-107.816680514048
