station,datetime,AQHI_0,AQHI_1,AQHI_2,AQHI_trend,PM25_0,PM25_1,PM25_2,NO2_0,NO2_1,NO2_2,O3_0,O3_1,O3_2,WS,WD,TEMP,RH,lat,lon
Buffalo Narrows,2026-04-28 20:00:00+00:00,2,2,2,0,2.93,2.93,2.93,0.57,0.57,0.57,35.97,35.97,35.97,8.31,351.8,2.92,54.59,55.8347917730994,-108.40387034522
Estevan,2026-04-28 20:00:00+00:00,2,2,2,0,5.1,5.1,5.1,4.18,4.18,4.18,33.46,33.46,33.46,6.55,302.89,5.97,36.46,49.1323647672702,-102.985002018981
Prince Albert,2026-04-28 20:00:00+00:00,3,3,3,0,6.66,6.66,6.66,3.04,3.04,3.04,41.93,41.93,41.93,3.67,282.2,6.52,39.15,53.2019378757967,-105.751586774025
Regina,2026-04-28 20:00:00+00:00,3,3,3,0,8.48,8.48,8.48,8.83,8.83,8.83,32.32,32.32,32.32,7.64,129.97,4.52,40.05,50.4502077461615,-104.617125744561
Saskatoon,2026-04-28 20:00:00+00:00,2,2,2,0,4.17,4.17,4.17,2.9,2.9,2.9,39.32,39.32,39.32,6.4,347.24,5.97,33.67,52.1361376913645,-106.662942708646
Swift Current,2026-04-28 20:00:00+00:00,2,2,2,0,3.81,3.81,3.81,3.1,3.1,3.1,35.95,35.95,35.95,6.15,224.86,8.16,38.8,50.2858504122844,-107.816680514048
