station,datetime,AQHI_0,AQHI_1,AQHI_2,AQHI_trend,PM25_0,PM25_1,PM25_2,NO2_0,NO2_1,NO2_2,O3_0,O3_1,O3_2,WS,WD,TEMP,RH,lat,lon
Buffalo Narrows,2026-05-02 06:00:00+00:00,2,2,2,0,0.86,0.86,0.86,0.05,0.05,0.05,38.11,38.11,38.11,8.27,335.82,7.24,47.56,55.8347917730994,-108.40387034522
Estevan,2026-05-02 06:00:00+00:00,3,3,3,0,6.94,6.94,6.94,4.04,4.04,4.04,37.96,37.96,37.96,9.47,183.51,11.03,31.35,49.1323647672702,-102.985002018981
Prince Albert,2026-05-02 06:00:00+00:00,3,3,3,0,5.3,5.3,5.3,1.64,1.64,1.64,45.61,45.61,45.61,7.15,325.66,9.11,49.0,53.2019378757967,-105.751586774025
Regina,2026-05-02 06:00:00+00:00,2,2,2,0,5.56,5.56,5.56,5.3,5.3,5.3,29.28,29.28,29.28,11.6,240.41,14.01,31.02,50.4502077461615,-104.617125744561
Saskatoon,2026-05-02 06:00:00+00:00,3,3,3,0,5.09,5.09,5.09,2.54,2.54,2.54,40.06,40.06,40.06,13.41,337.66,14.15,38.46,52.1361376913645,-106.662942708646
Swift Current,2026-05-02 06:00:00+00:00,3,3,3,0,7.82,7.82,7.82,6.91,6.91,6.91,32.27,32.27,32.27,4.97,312.56,12.92,41.9,50.2858504122844,-107.816680514048
