station,datetime,AQHI_0,AQHI_1,AQHI_2,AQHI_trend,PM25_0,PM25_1,PM25_2,NO2_0,NO2_1,NO2_2,O3_0,O3_1,O3_2,WS,WD,TEMP,RH,lat,lon
Buffalo Narrows,2026-04-24 15:00:00+00:00,2.0,2.0,2.0,0,2.34,2.34,2.34,0.5,0.5,0.5,42.85,42.85,42.85,26.26,343.61,-7.12,79.7,55.8347917730994,-108.40387034522
Estevan,2026-04-24 15:00:00+00:00,2.0,2.0,2.0,0,1.29,1.29,1.29,1.7,1.7,1.7,38.04,38.04,38.04,32.35,245.0,-1.74,55.13,49.1323647672702,-102.985002018981
Prince Albert,2026-04-24 15:00:00+00:00,2.0,2.0,2.0,0,1.55,1.55,1.55,2.5,2.5,2.5,40.34,40.34,40.34,13.16,330.4,-5.82,78.55,53.2019378757967,-105.751586774025
Regina,2026-04-24 15:00:00+00:00,2.0,2.0,2.0,0,1.88,1.88,1.88,3.84,3.84,3.84,30.73,30.73,30.73,20.2,270.91,-4.75,71.6,50.4502077461615,-104.617125744561
Saskatoon,2026-04-24 15:00:00+00:00,,,,0,2.05,2.05,2.05,,,,,,,18.05,307.4,-5.77,81.99,52.1361376913645,-106.662942708646
Swift Current,2026-04-24 15:00:00+00:00,2.0,2.0,2.0,0,1.82,1.82,1.82,2.88,2.88,2.88,39.68,39.68,39.68,31.43,294.86,-6.82,90.85,50.2858504122844,-107.816680514048
