station,datetime,AQHI_0,AQHI_1,AQHI_2,AQHI_trend,PM25_0,PM25_1,PM25_2,NO2_0,NO2_1,NO2_2,O3_0,O3_1,O3_2,WS,WD,TEMP,RH,lat,lon
Buffalo Narrows,2026-05-04 00:00:00+00:00,2,2,2,0,2.58,2.58,2.58,0.29,0.29,0.29,40.26,40.26,40.26,15.93,321.93,4.74,59.95,55.8347917730994,-108.40387034522
Estevan,2026-05-04 00:00:00+00:00,3,3,3,0,7.89,7.89,7.89,1.17,1.17,1.17,50.6,50.6,50.6,25.73,288.94,23.21,19.4,49.1323647672702,-102.985002018981
Prince Albert,2026-05-04 00:00:00+00:00,3,3,3,0,3.93,3.93,3.93,0.5,0.5,0.5,46.51,46.51,46.51,20.59,331.81,10.92,37.87,53.2019378757967,-105.751586774025
Regina,2026-05-04 00:00:00+00:00,3,3,3,0,8.35,8.35,8.35,1.83,1.83,1.83,41.08,41.08,41.08,25.99,345.04,17.38,25.15,50.4502077461615,-104.617125744561
Saskatoon,2026-05-04 00:00:00+00:00,4,4,4,0,21.25,21.25,21.25,2.11,2.11,2.11,50.01,50.01,50.01,26.12,316.39,15.4,23.57,52.1361376913645,-106.662942708646
Swift Current,2026-05-04 00:00:00+00:00,3,3,3,0,4.72,4.72,4.72,2.07,2.07,2.07,46.32,46.32,46.32,26.03,321.44,19.86,22.72,50.2858504122844,-107.816680514048
