station,datetime,AQHI_0,AQHI_1,AQHI_2,AQHI_trend,PM25_0,PM25_1,PM25_2,NO2_0,NO2_1,NO2_2,O3_0,O3_1,O3_2,WS,WD,TEMP,RH,lat,lon
Buffalo Narrows,2026-04-27 11:00:00+00:00,2,2,2,0,1.04,1.04,1.04,0.23,0.23,0.23,32.4,32.4,32.4,1.33,332.0,-6.21,76.12,55.8347917730994,-108.40387034522
Estevan,2026-04-27 11:00:00+00:00,2,2,2,0,2.79,2.79,2.79,2.77,2.77,2.77,23.13,23.13,23.13,8.79,329.58,-1.86,64.2,49.1323647672702,-102.985002018981
Prince Albert,2026-04-27 11:00:00+00:00,2,2,2,0,1.23,1.23,1.23,5.94,5.94,5.94,27.94,27.94,27.94,3.25,277.23,-3.73,75.83,53.2019378757967,-105.751586774025
Regina,2026-04-27 11:00:00+00:00,2,2,2,0,3.01,3.01,3.01,7.05,7.05,7.05,19.67,19.67,19.67,7.1,307.04,-4.22,65.18,50.4502077461615,-104.617125744561
Saskatoon,2026-04-27 11:00:00+00:00,2,2,2,0,2.72,2.72,2.72,4.1,4.1,4.1,29.0,29.0,29.0,6.47,265.89,-1.8,65.08,52.1361376913645,-106.662942708646
Swift Current,2026-04-27 11:00:00+00:00,2,2,2,0,2.79,2.79,2.79,5.32,5.32,5.32,30.95,30.95,30.95,6.5,284.35,-3.87,61.93,50.2858504122844,-107.816680514048
