station,datetime,AQHI_0,AQHI_1,AQHI_2,AQHI_trend,PM25_0,PM25_1,PM25_2,NO2_0,NO2_1,NO2_2,O3_0,O3_1,O3_2,WS,WD,TEMP,RH,lat,lon
Buffalo Narrows,2026-04-29 04:00:00+00:00,2,2,2,0,1.96,1.96,1.96,0.16,0.16,0.16,36.61,36.61,36.61,3.35,1.9,0.42,54.9,55.8347917730994,-108.40387034522
Estevan,2026-04-29 04:00:00+00:00,2,2,2,0,6.86,6.86,6.86,8.57,8.57,8.57,24.56,24.56,24.56,5.87,61.49,4.49,41.0,49.1323647672702,-102.985002018981
Prince Albert,2026-04-29 04:00:00+00:00,3,3,3,0,4.54,4.54,4.54,5.28,5.28,5.28,36.97,36.97,36.97,5.47,235.47,4.01,50.85,53.2019378757967,-105.751586774025
Regina,2026-04-29 04:00:00+00:00,2,2,2,0,4.17,4.17,4.17,7.41,7.41,7.41,29.23,29.23,29.23,10.52,61.23,3.0,47.41,50.4502077461615,-104.617125744561
Saskatoon,2026-04-29 04:00:00+00:00,3,3,3,0,5.4,5.4,5.4,10.64,10.64,10.64,30.89,30.89,30.89,3.8,155.2,4.26,44.56,52.1361376913645,-106.662942708646
Swift Current,2026-04-29 04:00:00+00:00,2,2,2,0,3.89,3.89,3.89,6.78,6.78,6.78,32.62,32.62,32.62,9.94,80.2,3.72,54.96,50.2858504122844,-107.816680514048
