station,datetime,AQHI_0,AQHI_1,AQHI_2,AQHI_trend,PM25_0,PM25_1,PM25_2,NO2_0,NO2_1,NO2_2,O3_0,O3_1,O3_2,WS,WD,TEMP,RH,lat,lon
Buffalo Narrows,2026-04-24 22:00:00+00:00,2,2,2,0,1.6,1.6,1.6,0.21,0.21,0.21,36.54,36.54,36.54,26.99,352.54,-5.15,80.41,55.8347917730994,-108.40387034522
Estevan,2026-04-24 22:00:00+00:00,2,2,2,0,1.88,1.88,1.88,1.41,1.41,1.41,38.29,38.29,38.29,30.35,252.16,-1.46,49.94,49.1323647672702,-102.985002018981
Prince Albert,2026-04-24 22:00:00+00:00,2,2,2,0,1.46,1.46,1.46,1.46,1.46,1.46,37.36,37.36,37.36,12.68,331.8,-4.21,71.92,53.2019378757967,-105.751586774025
Regina,2026-04-24 22:00:00+00:00,2,2,2,0,1.39,1.39,1.39,2.05,2.05,2.05,35.79,35.79,35.79,22.81,267.32,-3.84,67.1,50.4502077461615,-104.617125744561
Saskatoon,2026-04-24 22:00:00+00:00,2,2,2,0,1.79,1.79,1.79,2.19,2.19,2.19,36.6,36.6,36.6,19.65,315.62,-5.22,81.5,52.1361376913645,-106.662942708646
Swift Current,2026-04-24 22:00:00+00:00,3,3,3,0,2.39,2.39,2.39,2.8,2.8,2.8,42.53,42.53,42.53,24.44,307.71,-5.83,90.3,50.2858504122844,-107.816680514048
