station,datetime,AQHI_0,AQHI_1,AQHI_2,AQHI_trend,PM25_0,PM25_1,PM25_2,NO2_0,NO2_1,NO2_2,O3_0,O3_1,O3_2,WS,WD,TEMP,RH,lat,lon
Buffalo Narrows,2026-04-27 15:00:00+00:00,2,2,2,0,0.7,0.7,0.7,0.16,0.16,0.16,33.02,33.02,33.02,3.98,14.17,-6.42,74.64,55.8347917730994,-108.40387034522
Estevan,2026-04-27 15:00:00+00:00,2,2,2,0,3.01,3.01,3.01,3.26,3.26,3.26,25.21,25.21,25.21,10.31,339.57,-1.33,61.34,49.1323647672702,-102.985002018981
Prince Albert,2026-04-27 15:00:00+00:00,2,2,2,0,2.5,2.5,2.5,9.62,9.62,9.62,27.25,27.25,27.25,4.5,248.54,-1.32,67.45,53.2019378757967,-105.751586774025
Regina,2026-04-27 15:00:00+00:00,2,2,2,0,4.61,4.61,4.61,3.19,3.19,3.19,24.56,24.56,24.56,8.77,330.43,-1.82,60.08,50.4502077461615,-104.617125744561
Saskatoon,2026-04-27 15:00:00+00:00,2,2,2,0,3.99,3.99,3.99,4.76,4.76,4.76,26.68,26.68,26.68,7.38,252.78,-1.67,63.62,52.1361376913645,-106.662942708646
Swift Current,2026-04-27 15:00:00+00:00,2,2,2,0,3.03,3.03,3.03,2.85,2.85,2.85,33.07,33.07,33.07,5.1,226.21,-3.37,57.31,50.2858504122844,-107.816680514048
