station,datetime,AQHI_0,AQHI_1,AQHI_2,AQHI_trend,PM25_0,PM25_1,PM25_2,NO2_0,NO2_1,NO2_2,O3_0,O3_1,O3_2,WS,WD,TEMP,RH,lat,lon
Buffalo Narrows,2026-04-29 23:00:00+00:00,3,3,3,0,2.58,2.58,2.58,0.51,0.51,0.51,45.19,45.19,45.19,5.85,2.75,8.11,32.96,55.8347917730994,-108.40387034522
Estevan,2026-04-29 23:00:00+00:00,3,3,3,0,4.57,4.57,4.57,2.63,2.63,2.63,40.3,40.3,40.3,10.18,297.06,8.65,28.24,49.1323647672702,-102.985002018981
Prince Albert,2026-04-29 23:00:00+00:00,3,3,3,0,6.86,6.86,6.86,2.56,2.56,2.56,40.75,40.75,40.75,4.93,225.16,8.9,35.89,53.2019378757967,-105.751586774025
Regina,2026-04-29 23:00:00+00:00,3,3,3,0,4.73,4.73,4.73,2.53,2.53,2.53,40.54,40.54,40.54,16.06,311.37,10.37,31.66,50.4502077461615,-104.617125744561
Saskatoon,2026-04-29 23:00:00+00:00,3,3,3,0,6.34,6.34,6.34,2.76,2.76,2.76,44.16,44.16,44.16,11.11,352.68,12.13,32.2,52.1361376913645,-106.662942708646
Swift Current,2026-04-29 23:00:00+00:00,3,3,3,0,4.21,4.21,4.21,4.87,4.87,4.87,43.25,43.25,43.25,10.5,328.95,11.49,27.3,50.2858504122844,-107.816680514048
