station,datetime,AQHI_0,AQHI_1,AQHI_2,AQHI_trend,PM25_0,PM25_1,PM25_2,NO2_0,NO2_1,NO2_2,O3_0,O3_1,O3_2,WS,WD,TEMP,RH,lat,lon
Buffalo Narrows,2026-04-25 08:00:00+00:00,2,2,2,0,2.14,2.14,2.14,0.07,0.07,0.07,33.43,33.43,33.43,17.85,347.74,-6.87,80.71,55.8347917730994,-108.40387034522
Estevan,2026-04-25 08:00:00+00:00,2,2,2,0,2.39,2.39,2.39,1.56,1.56,1.56,32.02,32.02,32.02,18.53,238.74,-5.8,70.22,49.1323647672702,-102.985002018981
Prince Albert,2026-04-25 08:00:00+00:00,2,2,2,0,0.95,0.95,0.95,1.1,1.1,1.1,36.36,36.36,36.36,10.8,43.94,-3.07,76.99,53.2019378757967,-105.751586774025
Regina,2026-04-25 08:00:00+00:00,2,2,2,0,2.17,2.17,2.17,5.35,5.35,5.35,28.59,28.59,28.59,11.23,256.9,-7.12,74.63,50.4502077461615,-104.617125744561
Saskatoon,2026-04-25 08:00:00+00:00,2,2,2,0,0.69,0.69,0.69,4.32,4.32,4.32,31.6,31.6,31.6,16.87,319.8,-5.56,82.56,52.1361376913645,-106.662942708646
Swift Current,2026-04-25 08:00:00+00:00,2,2,2,0,1.52,1.52,1.52,1.75,1.75,1.75,35.66,35.66,35.66,20.58,305.6,-8.14,93.33,50.2858504122844,-107.816680514048
