station,datetime,AQHI_0,AQHI_1,AQHI_2,AQHI_trend,PM25_0,PM25_1,PM25_2,NO2_0,NO2_1,NO2_2,O3_0,O3_1,O3_2,WS,WD,TEMP,RH,lat,lon
Buffalo Narrows,2026-05-03 00:00:00+00:00,3,3,3,0,1.64,1.64,1.64,0.31,0.31,0.31,49.76,49.76,49.76,3.99,61.8,13.67,27.19,55.8347917730994,-108.40387034522
Estevan,2026-05-03 00:00:00+00:00,3,3,3,0,3.25,3.25,3.25,1.44,1.44,1.44,44.37,44.37,44.37,16.15,331.7,17.64,21.81,49.1323647672702,-102.985002018981
Prince Albert,2026-05-03 00:00:00+00:00,3,3,3,0,5.96,5.96,5.96,0.93,0.93,0.93,45.61,45.61,45.61,9.41,302.76,17.61,24.33,53.2019378757967,-105.751586774025
Regina,2026-05-03 00:00:00+00:00,2,2,2,0,4.14,4.14,4.14,1.74,1.74,1.74,40.2,40.2,40.2,14.66,324.78,17.6,25.12,50.4502077461615,-104.617125744561
Saskatoon,2026-05-03 00:00:00+00:00,3,3,3,0,3.24,3.24,3.24,1.52,1.52,1.52,45.72,45.72,45.72,15.55,310.62,19.77,19.2,52.1361376913645,-106.662942708646
Swift Current,2026-05-03 00:00:00+00:00,3,3,3,0,3.38,3.38,3.38,1.92,1.92,1.92,46.98,46.98,46.98,15.98,294.03,18.81,22.83,50.2858504122844,-107.816680514048
