station,datetime,AQHI_0,AQHI_1,AQHI_2,AQHI_trend,PM25_0,PM25_1,PM25_2,NO2_0,NO2_1,NO2_2,O3_0,O3_1,O3_2,WS,WD,TEMP,RH,lat,lon
Buffalo Narrows,2026-04-27 07:00:00+00:00,2,2,2,0,0.9,0.9,0.9,0.05,0.05,0.05,34.76,34.76,34.76,6.05,324.75,-5.49,76.16,55.8347917730994,-108.40387034522
Estevan,2026-04-27 07:00:00+00:00,2,2,2,0,7.27,7.27,7.27,6.03,6.03,6.03,25.68,25.68,25.68,6.57,336.18,-1.05,65.51,49.1323647672702,-102.985002018981
Prince Albert,2026-04-27 07:00:00+00:00,2,2,2,0,0.71,0.71,0.71,2.35,2.35,2.35,32.71,32.71,32.71,3.66,295.51,-1.68,69.21,53.2019378757967,-105.751586774025
Regina,2026-04-27 07:00:00+00:00,2,2,2,0,2.75,2.75,2.75,4.91,4.91,4.91,24.65,24.65,24.65,6.9,290.7,-2.17,55.83,50.4502077461615,-104.617125744561
Saskatoon,2026-04-27 07:00:00+00:00,2,2,2,0,3.21,3.21,3.21,4.43,4.43,4.43,29.53,29.53,29.53,7.35,245.18,-1.06,64.96,52.1361376913645,-106.662942708646
Swift Current,2026-04-27 07:00:00+00:00,2,2,2,0,2.87,2.87,2.87,4.38,4.38,4.38,30.79,30.79,30.79,6.19,293.63,-3.56,66.14,50.2858504122844,-107.816680514048
