station,datetime,AQHI_0,AQHI_1,AQHI_2,AQHI_trend,PM25_0,PM25_1,PM25_2,NO2_0,NO2_1,NO2_2,O3_0,O3_1,O3_2,WS,WD,TEMP,RH,lat,lon
Buffalo Narrows,2026-04-25 22:00:00+00:00,2,2,2,0,0.4,0.4,0.4,0.23,0.23,0.23,33.95,33.95,33.95,20.02,343.85,-3.1,77.97,55.8347917730994,-108.40387034522
Estevan,2026-04-25 22:00:00+00:00,2,2,2,0,2.34,2.34,2.34,1.36,1.36,1.36,34.25,34.25,34.25,27.23,249.0,-0.55,45.38,49.1323647672702,-102.985002018981
Prince Albert,2026-04-25 22:00:00+00:00,2,2,2,0,0.82,0.82,0.82,2.49,2.49,2.49,34.82,34.82,34.82,6.57,303.61,0.65,67.14,53.2019378757967,-105.751586774025
Regina,2026-04-25 22:00:00+00:00,2,2,2,0,1.78,1.78,1.78,1.56,1.56,1.56,29.66,29.66,29.66,21.56,277.5,-1.68,63.81,50.4502077461615,-104.617125744561
Saskatoon,2026-04-25 22:00:00+00:00,2,2,2,0,1.06,1.06,1.06,2.77,2.77,2.77,33.25,33.25,33.25,13.69,294.77,-0.99,60.4,52.1361376913645,-106.662942708646
Swift Current,2026-04-25 22:00:00+00:00,2,2,2,0,2.18,2.18,2.18,2.12,2.12,2.12,38.62,38.62,38.62,22.71,289.97,-4.12,73.56,50.2858504122844,-107.816680514048
