station,datetime,AQHI_0,AQHI_1,AQHI_2,AQHI_trend,PM25_0,PM25_1,PM25_2,NO2_0,NO2_1,NO2_2,O3_0,O3_1,O3_2,WS,WD,TEMP,RH,lat,lon
Buffalo Narrows,2026-04-26 03:00:00+00:00,2,2,2,0,0.39,0.39,0.39,0.08,0.08,0.08,31.21,31.21,31.21,16.04,348.49,-3.61,79.68,55.8347917730994,-108.40387034522
Estevan,2026-04-26 03:00:00+00:00,2,2,2,0,2.47,2.47,2.47,3.5,3.5,3.5,31.0,31.0,31.0,9.92,271.57,-1.6,50.48,49.1323647672702,-102.985002018981
Prince Albert,2026-04-26 03:00:00+00:00,2,2,2,0,1.14,1.14,1.14,2.62,2.62,2.62,34.96,34.96,34.96,3.86,291.46,-1.06,79.38,53.2019378757967,-105.751586774025
Regina,2026-04-26 03:00:00+00:00,2,2,2,0,2.62,2.62,2.62,5.78,5.78,5.78,26.68,26.68,26.68,10.63,268.21,-2.14,59.97,50.4502077461615,-104.617125744561
Saskatoon,2026-04-26 03:00:00+00:00,2,2,2,0,1.49,1.49,1.49,2.46,2.46,2.46,31.9,31.9,31.9,9.62,274.04,-1.47,70.42,52.1361376913645,-106.662942708646
Swift Current,2026-04-26 03:00:00+00:00,2,2,2,0,1.64,1.64,1.64,4.68,4.68,4.68,34.7,34.7,34.7,8.96,306.42,-5.21,91.0,50.2858504122844,-107.816680514048
