station,datetime,AQHI_0,AQHI_1,AQHI_2,AQHI_trend,PM25_0,PM25_1,PM25_2,NO2_0,NO2_1,NO2_2,O3_0,O3_1,O3_2,WS,WD,TEMP,RH,lat,lon
Buffalo Narrows,2026-05-04 09:00:00+00:00,2,2,2,0,11.69,11.69,11.69,0.44,0.44,0.44,33.67,33.67,33.67,11.59,316.23,1.09,66.21,55.8347917730994,-108.40387034522
Estevan,2026-05-04 09:00:00+00:00,2,2,2,0,0.92,0.92,0.92,2.13,2.13,2.13,32.76,32.76,32.76,11.77,298.28,3.02,60.77,49.1323647672702,-102.985002018981
Prince Albert,2026-05-04 09:00:00+00:00,2,2,2,0,0.71,0.71,0.71,0.7,0.7,0.7,33.5,33.5,33.5,9.35,326.93,0.38,74.67,53.2019378757967,-105.751586774025
Regina,2026-05-04 09:00:00+00:00,2,2,2,0,1.03,1.03,1.03,1.52,1.52,1.52,30.7,30.7,30.7,13.97,327.37,3.4,59.51,50.4502077461615,-104.617125744561
Saskatoon,2026-05-04 09:00:00+00:00,2,2,2,0,3.37,3.37,3.37,1.82,1.82,1.82,35.06,35.06,35.06,13.52,327.56,2.77,64.27,52.1361376913645,-106.662942708646
Swift Current,2026-05-04 09:00:00+00:00,2,2,2,0,2.0,2.0,2.0,1.58,1.58,1.58,35.55,35.55,35.55,12.56,308.87,3.5,64.14,50.2858504122844,-107.816680514048
