station,datetime,AQHI_0,AQHI_1,AQHI_2,AQHI_trend,PM25_0,PM25_1,PM25_2,NO2_0,NO2_1,NO2_2,O3_0,O3_1,O3_2,WS,WD,TEMP,RH,lat,lon
Buffalo Narrows,2026-05-01 16:00:00+00:00,2,2,2,0,3.24,3.24,3.24,0.49,0.49,0.49,44.12,44.12,44.12,7.99,196.93,9.12,40.63,55.8347917730994,-108.40387034522
Estevan,2026-05-01 16:00:00+00:00,2,2,2,0,8.32,8.32,8.32,4.05,4.05,4.05,33.89,33.89,33.89,10.77,248.67,11.24,32.01,49.1323647672702,-102.985002018981
Prince Albert,2026-05-01 16:00:00+00:00,3,3,3,0,14.59,14.59,14.59,4.04,4.04,4.04,29.23,29.23,29.23,5.63,107.66,8.23,51.18,53.2019378757967,-105.751586774025
Regina,2026-05-01 16:00:00+00:00,3,3,3,0,5.12,5.12,5.12,3.38,3.38,3.38,39.41,39.41,39.41,15.78,272.74,13.3,28.25,50.4502077461615,-104.617125744561
Saskatoon,2026-05-01 16:00:00+00:00,2,2,2,0,4.91,4.91,4.91,5.11,5.11,5.11,31.95,31.95,31.95,9.4,191.22,10.99,35.28,52.1361376913645,-106.662942708646
Swift Current,2026-05-01 16:00:00+00:00,3,3,3,0,6.7,6.7,6.7,5.09,5.09,5.09,36.8,36.8,36.8,8.13,179.49,14.68,32.43,50.2858504122844,-107.816680514048
