station,datetime,AQHI_0,AQHI_1,AQHI_2,AQHI_trend,PM25_0,PM25_1,PM25_2,NO2_0,NO2_1,NO2_2,O3_0,O3_1,O3_2,WS,WD,TEMP,RH,lat,lon
Buffalo Narrows,2026-04-30 10:00:00+00:00,2,2,2,0,2.54,2.54,2.54,0.43,0.43,0.43,40.77,40.77,40.77,7.82,187.72,2.71,50.3,55.8347917730994,-108.40387034522
Estevan,2026-04-30 10:00:00+00:00,2,2,2,0,4.75,4.75,4.75,4.44,4.44,4.44,17.83,17.83,17.83,9.2,343.03,-2.02,73.08,49.1323647672702,-102.985002018981
Prince Albert,2026-04-30 10:00:00+00:00,2,2,2,0,7.77,7.77,7.77,14.55,14.55,14.55,8.02,8.02,8.02,2.56,315.19,-2.02,79.06,53.2019378757967,-105.751586774025
Regina,2026-04-30 10:00:00+00:00,3,3,3,0,5.76,5.76,5.76,29.23,29.23,29.23,4.3,4.3,4.3,3.45,263.77,-0.55,61.55,50.4502077461615,-104.617125744561
Saskatoon,2026-04-30 10:00:00+00:00,2,2,2,0,4.57,4.57,4.57,5.36,5.36,5.36,23.26,23.26,23.26,7.35,198.48,0.99,69.52,52.1361376913645,-106.662942708646
Swift Current,2026-04-30 10:00:00+00:00,2,2,2,0,3.91,3.91,3.91,11.94,11.94,11.94,14.12,14.12,14.12,3.2,137.87,-0.13,75.8,50.2858504122844,-107.816680514048
