station,datetime,AQHI_0,AQHI_1,AQHI_2,AQHI_trend,PM25_0,PM25_1,PM25_2,NO2_0,NO2_1,NO2_2,O3_0,O3_1,O3_2,WS,WD,TEMP,RH,lat,lon
Buffalo Narrows,2026-04-30 12:00:00+00:00,2,2,2,0,2.54,2.54,2.54,0.22,0.22,0.22,42.24,42.24,42.24,12.05,210.93,2.41,51.18,55.8347917730994,-108.40387034522
Estevan,2026-04-30 12:00:00+00:00,2,2,2,0,4.78,4.78,4.78,7.73,7.73,7.73,13.02,13.02,13.02,5.59,351.22,-3.41,73.86,49.1323647672702,-102.985002018981
Prince Albert,2026-04-30 12:00:00+00:00,2,2,2,0,6.1,6.1,6.1,9.3,9.3,9.3,9.71,9.71,9.71,2.5,296.04,-2.52,80.47,53.2019378757967,-105.751586774025
Regina,2026-04-30 12:00:00+00:00,3,3,3,0,8.68,8.68,8.68,29.03,29.03,29.03,1.3,1.3,1.3,2.25,292.15,-2.1,67.93,50.4502077461615,-104.617125744561
Saskatoon,2026-04-30 12:00:00+00:00,2,2,2,0,4.82,4.82,4.82,9.12,9.12,9.12,14.67,14.67,14.67,5.77,202.53,-0.2,73.54,52.1361376913645,-106.662942708646
Swift Current,2026-04-30 12:00:00+00:00,2,2,2,0,5.21,5.21,5.21,17.03,17.03,17.03,8.25,8.25,8.25,2.49,249.71,-1.23,78.13,50.2858504122844,-107.816680514048
