station,datetime,AQHI_0,AQHI_1,AQHI_2,AQHI_trend,PM25_0,PM25_1,PM25_2,NO2_0,NO2_1,NO2_2,O3_0,O3_1,O3_2,WS,WD,TEMP,RH,lat,lon
Buffalo Narrows,2026-05-03 19:00:00+00:00,2,2,2,0,2.53,2.53,2.53,0.28,0.28,0.28,42.32,42.32,42.32,24.59,319.56,7.48,51.19,55.8347917730994,-108.40387034522
Estevan,2026-05-03 19:00:00+00:00,3,3,3,0,4.9,4.9,4.9,1.34,1.34,1.34,50.79,50.79,50.79,26.53,249.35,20.73,22.12,49.1323647672702,-102.985002018981
Prince Albert,2026-05-03 19:00:00+00:00,3,3,3,0,6.67,6.67,6.67,0.96,0.96,0.96,46.77,46.77,46.77,12.9,292.84,16.0,32.31,53.2019378757967,-105.751586774025
Regina,2026-05-03 19:00:00+00:00,3,3,3,0,6.33,6.33,6.33,1.53,1.53,1.53,41.79,41.79,41.79,26.01,305.58,21.49,25.17,50.4502077461615,-104.617125744561
Saskatoon,2026-05-03 19:00:00+00:00,3,3,3,0,16.44,16.44,16.44,2.24,2.24,2.24,47.28,47.28,47.28,23.78,295.82,20.31,20.76,52.1361376913645,-106.662942708646
Swift Current,2026-05-03 19:00:00+00:00,3,3,3,0,5.91,5.91,5.91,2.35,2.35,2.35,44.64,44.64,44.64,28.31,285.39,19.72,24.23,50.2858504122844,-107.816680514048
