station,datetime,AQHI_0,AQHI_1,AQHI_2,AQHI_trend,PM25_0,PM25_1,PM25_2,NO2_0,NO2_1,NO2_2,O3_0,O3_1,O3_2,WS,WD,TEMP,RH,lat,lon
Buffalo Narrows,2026-04-28 01:00:00+00:00,2,2,2,0,0.24,0.24,0.24,0.19,0.19,0.19,34.97,34.97,34.97,6.46,354.83,-1.85,55.57,55.8347917730994,-108.40387034522
Estevan,2026-04-28 01:00:00+00:00,2,2,2,0,6.17,6.17,6.17,3.16,3.16,3.16,36.21,36.21,36.21,11.92,313.64,4.63,34.84,49.1323647672702,-102.985002018981
Prince Albert,2026-04-28 01:00:00+00:00,3,3,3,0,5.28,5.28,5.28,3.34,3.34,3.34,38.39,38.39,38.39,7.11,233.24,1.99,52.05,53.2019378757967,-105.751586774025
Regina,2026-04-28 01:00:00+00:00,2,2,2,0,4.26,4.26,4.26,2.37,2.37,2.37,32.8,32.8,32.8,7.69,329.31,1.61,42.44,50.4502077461615,-104.617125744561
Saskatoon,2026-04-28 01:00:00+00:00,2,2,2,0,4.03,4.03,4.03,1.77,1.77,1.77,37.15,37.15,37.15,5.26,298.08,3.42,44.36,52.1361376913645,-106.662942708646
Swift Current,2026-04-28 01:00:00+00:00,2,2,2,0,3.13,3.13,3.13,1.81,1.81,1.81,36.31,36.31,36.31,3.07,202.96,2.02,44.31,50.2858504122844,-107.816680514048
