station,datetime,AQHI_0,AQHI_1,AQHI_2,AQHI_trend,PM25_0,PM25_1,PM25_2,NO2_0,NO2_1,NO2_2,O3_0,O3_1,O3_2,WS,WD,TEMP,RH,lat,lon
Buffalo Narrows,2026-04-27 13:00:00+00:00,2,2,2,0,0.68,0.68,0.68,0.15,0.15,0.15,32.34,32.34,32.34,2.93,53.91,-6.68,77.28,55.8347917730994,-108.40387034522
Estevan,2026-04-27 13:00:00+00:00,1,1,1,0,3.03,3.03,3.03,3.41,3.41,3.41,20.23,20.23,20.23,10.27,334.16,-3.7,66.42,49.1323647672702,-102.985002018981
Prince Albert,2026-04-27 13:00:00+00:00,2,2,2,0,1.82,1.82,1.82,6.95,6.95,6.95,27.1,27.1,27.1,2.51,304.07,-3.2,74.28,53.2019378757967,-105.751586774025
Regina,2026-04-27 13:00:00+00:00,2,2,2,0,4.2,4.2,4.2,12.31,12.31,12.31,17.46,17.46,17.46,5.69,293.77,-4.53,65.14,50.4502077461615,-104.617125744561
Saskatoon,2026-04-27 13:00:00+00:00,2,2,2,0,3.47,3.47,3.47,5.06,5.06,5.06,27.2,27.2,27.2,6.81,258.89,-2.04,64.94,52.1361376913645,-106.662942708646
Swift Current,2026-04-27 13:00:00+00:00,3,3,3,0,3.07,3.07,3.07,12.56,12.56,12.56,25.38,25.38,25.38,5.71,273.26,-3.75,59.95,50.2858504122844,-107.816680514048
