station,datetime,AQHI_0,AQHI_1,AQHI_2,AQHI_trend,PM25_0,PM25_1,PM25_2,NO2_0,NO2_1,NO2_2,O3_0,O3_1,O3_2,WS,WD,TEMP,RH,lat,lon
Buffalo Narrows,2026-04-26 11:00:00+00:00,2,2,2,0,1.49,1.49,1.49,0.06,0.06,0.06,33.45,33.45,33.45,16.24,345.37,-6.14,80.04,55.8347917730994,-108.40387034522
Estevan,2026-04-26 11:00:00+00:00,2,2,2,0,3.52,3.52,3.52,3.45,3.45,3.45,20.99,20.99,20.99,9.58,249.72,-5.99,69.62,49.1323647672702,-102.985002018981
Prince Albert,2026-04-26 11:00:00+00:00,2,2,2,0,2.47,2.47,2.47,4.19,4.19,4.19,30.39,30.39,30.39,2.29,303.84,-4.32,79.54,53.2019378757967,-105.751586774025
Regina,2026-04-26 11:00:00+00:00,2,2,2,0,2.75,2.75,2.75,6.67,6.67,6.67,24.39,24.39,24.39,10.17,251.16,-4.7,76.95,50.4502077461615,-104.617125744561
Saskatoon,2026-04-26 11:00:00+00:00,2,2,2,0,1.56,1.56,1.56,5.54,5.54,5.54,26.05,26.05,26.05,7.99,239.24,-4.85,77.61,52.1361376913645,-106.662942708646
Swift Current,2026-04-26 11:00:00+00:00,2,2,2,0,3.2,3.2,3.2,5.39,5.39,5.39,31.63,31.63,31.63,10.94,290.48,-6.99,96.22,50.2858504122844,-107.816680514048
