station,datetime,AQHI_0,AQHI_1,AQHI_2,AQHI_trend,PM25_0,PM25_1,PM25_2,NO2_0,NO2_1,NO2_2,O3_0,O3_1,O3_2,WS,WD,TEMP,RH,lat,lon
Buffalo Narrows,2026-05-02 20:00:00+00:00,2,2,2,0,1.1,1.1,1.1,0.21,0.21,0.21,44.32,44.32,44.32,6.22,31.26,9.57,34.63,55.8347917730994,-108.40387034522
Estevan,2026-05-02 20:00:00+00:00,3,3,3,0,5.76,5.76,5.76,1.62,1.62,1.62,51.69,51.69,51.69,20.6,327.57,17.76,30.63,49.1323647672702,-102.985002018981
Prince Albert,2026-05-02 20:00:00+00:00,3,3,3,0,5.88,5.88,5.88,0.98,0.98,0.98,41.44,41.44,41.44,9.63,296.82,16.26,28.51,53.2019378757967,-105.751586774025
Regina,2026-05-02 20:00:00+00:00,2,2,2,0,3.63,3.63,3.63,1.25,1.25,1.25,40.43,40.43,40.43,21.72,348.38,16.21,22.79,50.4502077461615,-104.617125744561
Saskatoon,2026-05-02 20:00:00+00:00,3,3,3,0,3.57,3.57,3.57,1.58,1.58,1.58,42.58,42.58,42.58,13.15,307.24,17.66,25.8,52.1361376913645,-106.662942708646
Swift Current,2026-05-02 20:00:00+00:00,3,3,3,0,3.23,3.23,3.23,2.0,2.0,2.0,43.03,43.03,43.03,8.54,319.17,16.93,29.03,50.2858504122844,-107.816680514048
