station,datetime,AQHI_0,AQHI_1,AQHI_2,AQHI_trend,PM25_0,PM25_1,PM25_2,NO2_0,NO2_1,NO2_2,O3_0,O3_1,O3_2,WS,WD,TEMP,RH,lat,lon
Buffalo Narrows,2026-04-27 05:00:00+00:00,2,2,2,0,1.16,1.16,1.16,0.08,0.08,0.08,34.12,34.12,34.12,8.29,336.91,-4.05,80.26,55.8347917730994,-108.40387034522
Estevan,2026-04-27 05:00:00+00:00,2,2,2,0,4.45,4.45,4.45,3.56,3.56,3.56,32.2,32.2,32.2,8.05,332.8,-1.14,75.31,49.1323647672702,-102.985002018981
Prince Albert,2026-04-27 05:00:00+00:00,2,2,2,0,0.98,0.98,0.98,2.14,2.14,2.14,32.3,32.3,32.3,3.99,291.24,-0.85,63.64,53.2019378757967,-105.751586774025
Regina,2026-04-27 05:00:00+00:00,2,2,2,0,2.66,2.66,2.66,3.3,3.3,3.3,28.36,28.36,28.36,8.0,311.4,-0.93,50.44,50.4502077461615,-104.617125744561
Saskatoon,2026-04-27 05:00:00+00:00,2,2,2,0,2.64,2.64,2.64,4.04,4.04,4.04,31.02,31.02,31.02,7.06,256.47,-0.56,61.9,52.1361376913645,-106.662942708646
Swift Current,2026-04-27 05:00:00+00:00,2,2,2,0,3.02,3.02,3.02,5.35,5.35,5.35,32.17,32.17,32.17,5.87,304.92,-3.43,62.79,50.2858504122844,-107.816680514048
