station,datetime,AQHI_0,AQHI_1,AQHI_2,AQHI_trend,PM25_0,PM25_1,PM25_2,NO2_0,NO2_1,NO2_2,O3_0,O3_1,O3_2,WS,WD,TEMP,RH,lat,lon
Buffalo Narrows,2026-05-04 12:00:00+00:00,2,2,2,0,4.79,4.79,4.79,0.18,0.18,0.18,33.62,33.62,33.62,15.21,321.1,0.14,68.22,55.8347917730994,-108.40387034522
Estevan,2026-05-04 12:00:00+00:00,2,2,2,0,1.05,1.05,1.05,3.48,3.48,3.48,28.11,28.11,28.11,12.11,275.48,2.25,64.75,49.1323647672702,-102.985002018981
Prince Albert,2026-05-04 12:00:00+00:00,2,2,2,0,0.37,0.37,0.37,0.86,0.86,0.86,33.54,33.54,33.54,9.33,328.8,0.41,67.58,53.2019378757967,-105.751586774025
Regina,2026-05-04 12:00:00+00:00,2,2,2,0,1.97,1.97,1.97,1.53,1.53,1.53,31.1,31.1,31.1,18.33,327.43,3.18,60.13,50.4502077461615,-104.617125744561
Saskatoon,2026-05-04 12:00:00+00:00,2,2,2,0,0.97,0.97,0.97,2.12,2.12,2.12,33.07,33.07,33.07,19.12,346.31,1.31,54.1,52.1361376913645,-106.662942708646
Swift Current,2026-05-04 12:00:00+00:00,2,2,2,0,1.8,1.8,1.8,4.96,4.96,4.96,26.76,26.76,26.76,11.22,312.04,0.43,79.55,50.2858504122844,-107.816680514048
