station,datetime,AQHI_0,AQHI_1,AQHI_2,AQHI_trend,PM25_0,PM25_1,PM25_2,NO2_0,NO2_1,NO2_2,O3_0,O3_1,O3_2,WS,WD,TEMP,RH,lat,lon
Buffalo Narrows,2026-05-03 01:00:00+00:00,3,3,3,0,1.63,1.63,1.63,0.27,0.27,0.27,48.61,48.61,48.61,2.66,18.55,14.41,26.28,55.8347917730994,-108.40387034522
Estevan,2026-05-03 01:00:00+00:00,3,3,3,0,3.41,3.41,3.41,3.24,3.24,3.24,42.68,42.68,42.68,17.65,329.66,16.8,22.41,49.1323647672702,-102.985002018981
Prince Albert,2026-05-03 01:00:00+00:00,3,3,3,0,5.32,5.32,5.32,0.88,0.88,0.88,45.65,45.65,45.65,7.42,305.33,17.41,24.59,53.2019378757967,-105.751586774025
Regina,2026-05-03 01:00:00+00:00,2,2,2,0,4.09,4.09,4.09,1.7,1.7,1.7,40.56,40.56,40.56,13.34,325.27,17.58,24.58,50.4502077461615,-104.617125744561
Saskatoon,2026-05-03 01:00:00+00:00,3,3,3,0,3.35,3.35,3.35,1.23,1.23,1.23,47.38,47.38,47.38,13.9,321.84,19.47,17.36,52.1361376913645,-106.662942708646
Swift Current,2026-05-03 01:00:00+00:00,3,3,3,0,3.16,3.16,3.16,2.47,2.47,2.47,47.31,47.31,47.31,12.23,323.22,18.7,22.92,50.2858504122844,-107.816680514048
