station,datetime,AQHI_0,AQHI_1,AQHI_2,AQHI_trend,PM25_0,PM25_1,PM25_2,NO2_0,NO2_1,NO2_2,O3_0,O3_1,O3_2,WS,WD,TEMP,RH,lat,lon
Buffalo Narrows,2026-04-29 02:00:00+00:00,2,2,2,0,2.87,2.87,2.87,0.26,0.26,0.26,41.82,41.82,41.82,4.5,353.79,2.96,46.33,55.8347917730994,-108.40387034522
Estevan,2026-04-29 02:00:00+00:00,2,2,2,0,5.62,5.62,5.62,4.17,4.17,4.17,33.02,33.02,33.02,7.1,10.29,7.06,34.16,49.1323647672702,-102.985002018981
Prince Albert,2026-04-29 02:00:00+00:00,3,3,3,0,6.74,6.74,6.74,7.3,7.3,7.3,37.91,37.91,37.91,3.86,188.66,5.37,43.54,53.2019378757967,-105.751586774025
Regina,2026-04-29 02:00:00+00:00,2,2,2,0,3.81,3.81,3.81,2.12,2.12,2.12,36.56,36.56,36.56,13.73,43.89,5.25,38.06,50.4502077461615,-104.617125744561
Saskatoon,2026-04-29 02:00:00+00:00,3,3,3,0,4.06,4.06,4.06,4.64,4.64,4.64,38.73,38.73,38.73,4.53,37.29,6.25,35.69,52.1361376913645,-106.662942708646
Swift Current,2026-04-29 02:00:00+00:00,3,3,3,0,4.22,4.22,4.22,7.18,7.18,7.18,33.69,33.69,33.69,10.4,8.48,8.49,34.25,50.2858504122844,-107.816680514048
