station,datetime,AQHI_0,AQHI_1,AQHI_2,AQHI_trend,PM25_0,PM25_1,PM25_2,NO2_0,NO2_1,NO2_2,O3_0,O3_1,O3_2,WS,WD,TEMP,RH,lat,lon
Buffalo Narrows,2026-04-27 18:00:00+00:00,2,2,2,0,0.56,0.56,0.56,0.65,0.65,0.65,34.61,34.61,34.61,5.95,26.66,-3.63,64.49,55.8347917730994,-108.40387034522
Estevan,2026-04-27 18:00:00+00:00,2,2,2,0,3.08,3.08,3.08,2.76,2.76,2.76,31.97,31.97,31.97,9.68,317.01,2.45,40.26,49.1323647672702,-102.985002018981
Prince Albert,2026-04-27 18:00:00+00:00,2,2,2,0,5.54,5.54,5.54,3.85,3.85,3.85,33.67,33.67,33.67,5.5,267.19,0.77,59.39,53.2019378757967,-105.751586774025
Regina,2026-04-27 18:00:00+00:00,2,2,2,0,3.74,3.74,3.74,2.81,2.81,2.81,31.08,31.08,31.08,10.51,310.53,0.11,47.5,50.4502077461615,-104.617125744561
Saskatoon,2026-04-27 18:00:00+00:00,2,2,2,0,3.94,3.94,3.94,3.82,3.82,3.82,33.93,33.93,33.93,7.44,255.92,0.33,50.2,52.1361376913645,-106.662942708646
Swift Current,2026-04-27 18:00:00+00:00,2,2,2,0,3.37,3.37,3.37,6.36,6.36,6.36,31.87,31.87,31.87,6.91,220.15,-2.11,54.05,50.2858504122844,-107.816680514048
