station,datetime,AQHI_0,AQHI_1,AQHI_2,AQHI_trend,PM25_0,PM25_1,PM25_2,NO2_0,NO2_1,NO2_2,O3_0,O3_1,O3_2,WS,WD,TEMP,RH,lat,lon
Buffalo Narrows,2026-04-28 06:00:00+00:00,2,2,2,0,0.48,0.48,0.48,0.1,0.1,0.1,32.2,32.2,32.2,2.43,29.13,-2.04,64.93,55.8347917730994,-108.40387034522
Estevan,2026-04-28 06:00:00+00:00,2,2,2,0,3.66,3.66,3.66,5.96,5.96,5.96,19.31,19.31,19.31,5.95,339.22,-2.19,60.6,49.1323647672702,-102.985002018981
Prince Albert,2026-04-28 06:00:00+00:00,3,3,3,0,4.97,4.97,4.97,6.07,6.07,6.07,34.39,34.39,34.39,4.52,261.16,-0.01,59.58,53.2019378757967,-105.751586774025
Regina,2026-04-28 06:00:00+00:00,3,3,3,0,6.43,6.43,6.43,19.52,19.52,19.52,14.26,14.26,14.26,2.53,255.91,-0.33,52.83,50.4502077461615,-104.617125744561
Saskatoon,2026-04-28 06:00:00+00:00,3,3,3,0,4.11,4.11,4.11,10.75,10.75,10.75,29.2,29.2,29.2,3.83,74.74,-0.59,59.35,52.1361376913645,-106.662942708646
Swift Current,2026-04-28 06:00:00+00:00,2,2,2,0,3.2,3.2,3.2,3.08,3.08,3.08,25.87,25.87,25.87,6.36,125.8,-2.87,74.64,50.2858504122844,-107.816680514048
