station,datetime,AQHI_0,AQHI_1,AQHI_2,AQHI_trend,PM25_0,PM25_1,PM25_2,NO2_0,NO2_1,NO2_2,O3_0,O3_1,O3_2,WS,WD,TEMP,RH,lat,lon
Buffalo Narrows,2026-04-30 02:00:00+00:00,3,3,3,0,2.39,2.39,2.39,0.34,0.34,0.34,46.38,46.38,46.38,2.58,131.08,10.1,29.35,55.8347917730994,-108.40387034522
Estevan,2026-04-30 02:00:00+00:00,3,3,3,0,5.54,5.54,5.54,4.64,4.64,4.64,38.02,38.02,38.02,7.95,268.24,8.42,31.04,49.1323647672702,-102.985002018981
Prince Albert,2026-04-30 02:00:00+00:00,2,2,2,0,6.43,6.43,6.43,3.54,3.54,3.54,36.46,36.46,36.46,6.24,173.16,6.26,50.62,53.2019378757967,-105.751586774025
Regina,2026-04-30 02:00:00+00:00,2,2,2,0,4.65,4.65,4.65,2.3,2.3,2.3,39.32,39.32,39.32,18.45,357.39,8.12,38.89,50.4502077461615,-104.617125744561
Saskatoon,2026-04-30 02:00:00+00:00,3,3,3,0,5.35,5.35,5.35,4.34,4.34,4.34,41.1,41.1,41.1,4.92,41.26,10.01,37.5,52.1361376913645,-106.662942708646
Swift Current,2026-04-30 02:00:00+00:00,3,3,3,0,4.0,4.0,4.0,4.55,4.55,4.55,46.83,46.83,46.83,10.04,300.84,11.59,27.66,50.2858504122844,-107.816680514048
