station,datetime,AQHI_0,AQHI_1,AQHI_2,AQHI_trend,PM25_0,PM25_1,PM25_2,NO2_0,NO2_1,NO2_2,O3_0,O3_1,O3_2,WS,WD,TEMP,RH,lat,lon
Buffalo Narrows,2026-05-01 20:00:00+00:00,3,3,3,0,3.91,3.91,3.91,0.66,0.66,0.66,50.53,50.53,50.53,7.2,327.85,11.8,37.22,55.8347917730994,-108.40387034522
Estevan,2026-05-01 20:00:00+00:00,3,3,3,0,5.65,5.65,5.65,2.5,2.5,2.5,47.37,47.37,47.37,12.32,251.13,18.0,19.1,49.1323647672702,-102.985002018981
Prince Albert,2026-05-01 20:00:00+00:00,3,3,3,0,12.35,12.35,12.35,3.02,3.02,3.02,45.25,45.25,45.25,8.52,140.67,15.78,38.34,53.2019378757967,-105.751586774025
Regina,2026-05-01 20:00:00+00:00,3,3,3,0,4.5,4.5,4.5,2.22,2.22,2.22,48.79,48.79,48.79,12.01,255.53,19.26,17.29,50.4502077461615,-104.617125744561
Saskatoon,2026-05-01 20:00:00+00:00,3,3,3,0,6.61,6.61,6.61,2.78,2.78,2.78,52.81,52.81,52.81,12.71,208.96,22.31,17.04,52.1361376913645,-106.662942708646
Swift Current,2026-05-01 20:00:00+00:00,3,3,3,0,5.59,5.59,5.59,2.98,2.98,2.98,51.65,51.65,51.65,7.39,253.87,21.17,14.64,50.2858504122844,-107.816680514048
