station,datetime,AQHI_0,AQHI_1,AQHI_2,AQHI_trend,PM25_0,PM25_1,PM25_2,NO2_0,NO2_1,NO2_2,O3_0,O3_1,O3_2,WS,WD,TEMP,RH,lat,lon
Buffalo Narrows,2026-04-28 05:00:00+00:00,2,2,2,0,0.4,0.4,0.4,0.06,0.06,0.06,32.65,32.65,32.65,3.23,2.51,-2.8,64.07,55.8347917730994,-108.40387034522
Estevan,2026-04-28 05:00:00+00:00,2,2,2,0,3.94,3.94,3.94,4.57,4.57,4.57,22.4,22.4,22.4,8.06,344.19,-1.27,57.69,49.1323647672702,-102.985002018981
Prince Albert,2026-04-28 05:00:00+00:00,3,3,3,0,5.24,5.24,5.24,5.01,5.01,5.01,35.68,35.68,35.68,4.67,267.67,0.23,58.87,53.2019378757967,-105.751586774025
Regina,2026-04-28 05:00:00+00:00,2,2,2,0,4.89,4.89,4.89,11.98,11.98,11.98,21.91,21.91,21.91,4.67,108.53,0.16,50.4,50.4502077461615,-104.617125744561
Saskatoon,2026-04-28 05:00:00+00:00,3,3,3,0,4.48,4.48,4.48,10.03,10.03,10.03,29.75,29.75,29.75,4.66,113.25,-0.16,58.32,52.1361376913645,-106.662942708646
Swift Current,2026-04-28 05:00:00+00:00,2,2,2,0,4.56,4.56,4.56,13.23,13.23,13.23,20.15,20.15,20.15,4.88,104.57,-1.72,65.5,50.2858504122844,-107.816680514048
