station,datetime,AQHI_0,AQHI_1,AQHI_2,AQHI_trend,PM25_0,PM25_1,PM25_2,NO2_0,NO2_1,NO2_2,O3_0,O3_1,O3_2,WS,WD,TEMP,RH,lat,lon
Buffalo Narrows,2026-04-25 09:00:00+00:00,2,2,2,0,1.89,1.89,1.89,0.07,0.07,0.07,32.72,32.72,32.72,17.69,347.75,-6.9,81.34,55.8347917730994,-108.40387034522
Estevan,2026-04-25 09:00:00+00:00,2,2,2,0,2.28,2.28,2.28,1.84,1.84,1.84,31.34,31.34,31.34,12.64,224.13,-6.49,69.92,49.1323647672702,-102.985002018981
Prince Albert,2026-04-25 09:00:00+00:00,2,2,2,0,1.08,1.08,1.08,1.44,1.44,1.44,35.61,35.61,35.61,7.86,9.14,-3.06,76.19,53.2019378757967,-105.751586774025
Regina,2026-04-25 09:00:00+00:00,2,2,2,0,2.2,2.2,2.2,4.66,4.66,4.66,29.04,29.04,29.04,13.5,263.25,-7.27,74.08,50.4502077461615,-104.617125744561
Saskatoon,2026-04-25 09:00:00+00:00,2,2,2,0,0.59,0.59,0.59,2.41,2.41,2.41,32.39,32.39,32.39,15.69,330.46,-5.44,82.77,52.1361376913645,-106.662942708646
Swift Current,2026-04-25 09:00:00+00:00,2,2,2,0,1.49,1.49,1.49,2.04,2.04,2.04,35.28,35.28,35.28,21.98,298.85,-8.22,92.74,50.2858504122844,-107.816680514048
