station,datetime,AQHI_0,AQHI_1,AQHI_2,AQHI_trend,PM25_0,PM25_1,PM25_2,NO2_0,NO2_1,NO2_2,O3_0,O3_1,O3_2,WS,WD,TEMP,RH,lat,lon
Buffalo Narrows,2026-04-30 06:00:00+00:00,2,2,2,0,2.42,2.42,2.42,0.25,0.25,0.25,42.61,42.61,42.61,9.01,184.69,4.31,46.04,55.8347917730994,-108.40387034522
Estevan,2026-04-30 06:00:00+00:00,2,2,2,0,4.62,4.62,4.62,3.69,3.69,3.69,31.97,31.97,31.97,9.41,332.38,4.61,48.43,49.1323647672702,-102.985002018981
Prince Albert,2026-04-30 06:00:00+00:00,3,3,3,0,12.69,12.69,12.69,14.22,14.22,14.22,16.0,16.0,16.0,2.36,21.97,1.27,65.35,53.2019378757967,-105.751586774025
Regina,2026-04-30 06:00:00+00:00,2,2,2,0,3.55,3.55,3.55,3.34,3.34,3.34,30.74,30.74,30.74,8.65,47.96,2.05,51.85,50.4502077461615,-104.617125744561
Saskatoon,2026-04-30 06:00:00+00:00,3,3,3,0,6.98,6.98,6.98,10.28,10.28,10.28,26.93,26.93,26.93,5.07,186.46,4.95,55.88,52.1361376913645,-106.662942708646
Swift Current,2026-04-30 06:00:00+00:00,2,2,2,0,6.45,6.45,6.45,5.33,5.33,5.33,21.81,21.81,21.81,2.72,130.56,2.85,65.79,50.2858504122844,-107.816680514048
