station,datetime,AQHI_0,AQHI_1,AQHI_2,AQHI_trend,PM25_0,PM25_1,PM25_2,NO2_0,NO2_1,NO2_2,O3_0,O3_1,O3_2,WS,WD,TEMP,RH,lat,lon
Buffalo Narrows,2026-05-02 07:00:00+00:00,2,2,2,0,0.95,0.95,0.95,0.4,0.4,0.4,37.22,37.22,37.22,6.99,352.58,4.38,54.88,55.8347917730994,-108.40387034522
Estevan,2026-05-02 07:00:00+00:00,3,3,3,0,7.08,7.08,7.08,4.12,4.12,4.12,36.8,36.8,36.8,5.99,193.51,10.94,31.86,49.1323647672702,-102.985002018981
Prince Albert,2026-05-02 07:00:00+00:00,3,3,3,0,5.45,5.45,5.45,1.24,1.24,1.24,43.52,43.52,43.52,6.89,319.34,7.64,53.73,53.2019378757967,-105.751586774025
Regina,2026-05-02 07:00:00+00:00,2,2,2,0,5.83,5.83,5.83,4.5,4.5,4.5,28.0,28.0,28.0,9.05,288.59,12.9,35.49,50.4502077461615,-104.617125744561
Saskatoon,2026-05-02 07:00:00+00:00,3,3,3,0,4.99,4.99,4.99,2.45,2.45,2.45,44.65,44.65,44.65,14.26,346.84,12.39,41.64,52.1361376913645,-106.662942708646
Swift Current,2026-05-02 07:00:00+00:00,2,2,2,0,5.25,5.25,5.25,6.63,6.63,6.63,29.52,29.52,29.52,5.43,329.35,11.74,47.91,50.2858504122844,-107.816680514048
