station,datetime,AQHI_0,AQHI_1,AQHI_2,AQHI_trend,PM25_0,PM25_1,PM25_2,NO2_0,NO2_1,NO2_2,O3_0,O3_1,O3_2,WS,WD,TEMP,RH,lat,lon
Buffalo Narrows,2026-04-28 15:00:00+00:00,2,2,2,0,2.14,2.14,2.14,0.21,0.21,0.21,32.57,32.57,32.57,6.12,106.36,-0.17,59.74,55.8347917730994,-108.40387034522
Estevan,2026-04-28 15:00:00+00:00,2,2,2,0,8.15,8.15,8.15,6.82,6.82,6.82,20.43,20.43,20.43,2.57,264.74,0.36,53.91,49.1323647672702,-102.985002018981
Prince Albert,2026-04-28 15:00:00+00:00,2,2,2,0,5.93,5.93,5.93,4.97,4.97,4.97,32.18,32.18,32.18,3.0,280.84,0.67,57.9,53.2019378757967,-105.751586774025
Regina,2026-04-28 15:00:00+00:00,3,3,3,0,12.9,12.9,12.9,23.31,23.31,23.31,13.31,13.31,13.31,4.38,45.66,-0.15,50.04,50.4502077461615,-104.617125744561
Saskatoon,2026-04-28 15:00:00+00:00,2,2,2,0,5.94,5.94,5.94,7.25,7.25,7.25,19.62,19.62,19.62,4.64,240.11,-0.61,61.32,52.1361376913645,-106.662942708646
Swift Current,2026-04-28 15:00:00+00:00,2,2,2,0,5.49,5.49,5.49,10.16,10.16,10.16,23.9,23.9,23.9,8.14,94.65,-0.0,59.6,50.2858504122844,-107.816680514048
