station,datetime,AQHI_0,AQHI_1,AQHI_2,AQHI_trend,PM25_0,PM25_1,PM25_2,NO2_0,NO2_1,NO2_2,O3_0,O3_1,O3_2,WS,WD,TEMP,RH,lat,lon
Buffalo Narrows,2026-04-26 13:00:00+00:00,2,2,2,0,1.35,1.35,1.35,0.38,0.38,0.38,33.65,33.65,33.65,15.8,346.46,-6.3,79.75,55.8347917730994,-108.40387034522
Estevan,2026-04-26 13:00:00+00:00,2,2,2,0,3.77,3.77,3.77,3.77,3.77,3.77,23.03,23.03,23.03,7.36,239.68,-5.23,68.61,49.1323647672702,-102.985002018981
Prince Albert,2026-04-26 13:00:00+00:00,2,2,2,0,2.77,2.77,2.77,7.1,7.1,7.1,27.44,27.44,27.44,3.28,88.91,-4.42,79.79,53.2019378757967,-105.751586774025
Regina,2026-04-26 13:00:00+00:00,2,2,2,0,2.21,2.21,2.21,4.32,4.32,4.32,26.46,26.46,26.46,11.04,250.49,-5.0,76.39,50.4502077461615,-104.617125744561
Saskatoon,2026-04-26 13:00:00+00:00,2,2,2,0,1.43,1.43,1.43,4.12,4.12,4.12,26.79,26.79,26.79,8.91,251.91,-3.84,76.58,52.1361376913645,-106.662942708646
Swift Current,2026-04-26 13:00:00+00:00,3,3,3,0,3.91,3.91,3.91,9.87,9.87,9.87,29.33,29.33,29.33,11.73,274.52,-7.32,97.49,50.2858504122844,-107.816680514048
