station,datetime,AQHI_0,AQHI_1,AQHI_2,AQHI_trend,PM25_0,PM25_1,PM25_2,NO2_0,NO2_1,NO2_2,O3_0,O3_1,O3_2,WS,WD,TEMP,RH,lat,lon
Buffalo Narrows,2026-05-02 18:00:00+00:00,2,2,2,0,0.66,0.66,0.66,0.35,0.35,0.35,44.33,44.33,44.33,7.04,191.36,8.39,37.68,55.8347917730994,-108.40387034522
Estevan,2026-05-02 18:00:00+00:00,3,3,3,0,8.01,8.01,8.01,1.85,1.85,1.85,52.16,52.16,52.16,23.6,326.83,16.63,34.96,49.1323647672702,-102.985002018981
Prince Albert,2026-05-02 18:00:00+00:00,2,2,2,0,4.38,4.38,4.38,1.24,1.24,1.24,41.92,41.92,41.92,6.3,289.3,14.92,28.94,53.2019378757967,-105.751586774025
Regina,2026-05-02 18:00:00+00:00,2,2,2,0,5.7,5.7,5.7,1.13,1.13,1.13,38.21,38.21,38.21,24.85,352.47,14.87,29.84,50.4502077461615,-104.617125744561
Saskatoon,2026-05-02 18:00:00+00:00,2,2,2,0,3.87,3.87,3.87,1.67,1.67,1.67,41.4,41.4,41.4,6.99,286.49,15.7,34.33,52.1361376913645,-106.662942708646
Swift Current,2026-05-02 18:00:00+00:00,3,3,3,0,3.69,3.69,3.69,2.19,2.19,2.19,44.06,44.06,44.06,8.2,335.52,15.78,31.32,50.2858504122844,-107.816680514048
