station,datetime,AQHI_0,AQHI_1,AQHI_2,AQHI_trend,PM25_0,PM25_1,PM25_2,NO2_0,NO2_1,NO2_2,O3_0,O3_1,O3_2,WS,WD,TEMP,RH,lat,lon
Buffalo Narrows,2026-05-01 23:00:00+00:00,3,3,3,0,3.97,3.97,3.97,0.54,0.54,0.54,49.98,49.98,49.98,5.04,355.76,10.06,43.68,55.8347917730994,-108.40387034522
Estevan,2026-05-01 23:00:00+00:00,3,3,3,0,6.12,6.12,6.12,2.42,2.42,2.42,49.15,49.15,49.15,14.29,243.41,19.47,16.51,49.1323647672702,-102.985002018981
Prince Albert,2026-05-01 23:00:00+00:00,3,3,3,0,14.45,14.45,14.45,3.17,3.17,3.17,46.17,46.17,46.17,10.01,108.33,13.95,45.77,53.2019378757967,-105.751586774025
Regina,2026-05-01 23:00:00+00:00,3,3,3,0,4.93,4.93,4.93,2.34,2.34,2.34,51.15,51.15,51.15,14.32,244.72,21.02,15.12,50.4502077461615,-104.617125744561
Saskatoon,2026-05-01 23:00:00+00:00,4,4,4,0,9.61,9.61,9.61,3.07,3.07,3.07,56.78,56.78,56.78,15.0,205.97,23.79,15.0,52.1361376913645,-106.662942708646
Swift Current,2026-05-01 23:00:00+00:00,3,3,3,0,5.67,5.67,5.67,2.69,2.69,2.69,55.5,55.5,55.5,12.04,262.28,22.96,13.71,50.2858504122844,-107.816680514048
