station,datetime,AQHI_0,AQHI_1,AQHI_2,AQHI_trend,PM25_0,PM25_1,PM25_2,NO2_0,NO2_1,NO2_2,O3_0,O3_1,O3_2,WS,WD,TEMP,RH,lat,lon
Buffalo Narrows,2026-05-01 18:00:00+00:00,3,3,3,0,3.49,3.49,3.49,1.03,1.03,1.03,46.33,46.33,46.33,4.92,312.21,11.69,35.48,55.8347917730994,-108.40387034522
Estevan,2026-05-01 18:00:00+00:00,3,3,3,0,5.92,5.92,5.92,2.59,2.59,2.59,45.09,45.09,45.09,12.83,245.84,15.38,22.71,49.1323647672702,-102.985002018981
Prince Albert,2026-05-01 18:00:00+00:00,3,3,3,0,12.94,12.94,12.94,3.67,3.67,3.67,36.24,36.24,36.24,5.89,137.01,12.56,41.02,53.2019378757967,-105.751586774025
Regina,2026-05-01 18:00:00+00:00,3,3,3,0,4.36,4.36,4.36,3.16,3.16,3.16,45.88,45.88,45.88,13.45,256.86,16.92,20.55,50.4502077461615,-104.617125744561
Saskatoon,2026-05-01 18:00:00+00:00,3,3,3,0,5.26,5.26,5.26,4.51,4.51,4.51,43.34,43.34,43.34,11.0,187.29,18.98,21.97,52.1361376913645,-106.662942708646
Swift Current,2026-05-01 18:00:00+00:00,3,3,3,0,4.38,4.38,4.38,3.48,3.48,3.48,50.08,50.08,50.08,6.45,207.33,18.99,18.03,50.2858504122844,-107.816680514048
