station,datetime,AQHI_0,AQHI_1,AQHI_2,AQHI_trend,PM25_0,PM25_1,PM25_2,NO2_0,NO2_1,NO2_2,O3_0,O3_1,O3_2,WS,WD,TEMP,RH,lat,lon
Buffalo Narrows,2026-04-28 16:00:00+00:00,2,2,2,0,2.7,2.7,2.7,0.43,0.43,0.43,32.34,32.34,32.34,4.41,64.51,1.32,57.17,55.8347917730994,-108.40387034522
Estevan,2026-04-28 16:00:00+00:00,2,2,2,0,5.98,5.98,5.98,3.8,3.8,3.8,30.43,30.43,30.43,5.94,309.57,1.34,47.12,49.1323647672702,-102.985002018981
Prince Albert,2026-04-28 16:00:00+00:00,3,3,3,0,6.73,6.73,6.73,5.29,5.29,5.29,33.46,33.46,33.46,3.8,253.89,2.28,53.19,53.2019378757967,-105.751586774025
Regina,2026-04-28 16:00:00+00:00,3,3,3,0,7.93,7.93,7.93,12.41,12.41,12.41,23.02,23.02,23.02,3.75,321.28,1.51,44.5,50.4502077461615,-104.617125744561
Saskatoon,2026-04-28 16:00:00+00:00,2,2,2,0,8.1,8.1,8.1,8.57,8.57,8.57,20.4,20.4,20.4,3.93,302.34,1.85,52.42,52.1361376913645,-106.662942708646
Swift Current,2026-04-28 16:00:00+00:00,2,2,2,0,4.55,4.55,4.55,5.65,5.65,5.65,29.76,29.76,29.76,9.21,117.56,2.1,57.76,50.2858504122844,-107.816680514048
