station,datetime,AQHI_0,AQHI_1,AQHI_2,AQHI_trend,PM25_0,PM25_1,PM25_2,NO2_0,NO2_1,NO2_2,O3_0,O3_1,O3_2,WS,WD,TEMP,RH,lat,lon
Buffalo Narrows,2026-04-24 14:00:00+00:00,2,2,2,0,2.3,2.3,2.3,0.13,0.13,0.13,43.05,43.05,43.05,24.74,344.53,-7.14,79.69,55.8347917730994,-108.40387034522
Estevan,2026-04-24 14:00:00+00:00,2,2,2,0,1.06,1.06,1.06,1.85,1.85,1.85,35.68,35.68,35.68,24.35,246.92,-2.21,63.22,49.1323647672702,-102.985002018981
Prince Albert,2026-04-24 14:00:00+00:00,2,2,2,0,0.98,0.98,0.98,2.17,2.17,2.17,40.08,40.08,40.08,12.68,332.09,-5.56,80.07,53.2019378757967,-105.751586774025
Regina,2026-04-24 14:00:00+00:00,2,2,2,0,1.77,1.77,1.77,3.55,3.55,3.55,31.12,31.12,31.12,19.47,274.57,-4.99,71.35,50.4502077461615,-104.617125744561
Saskatoon,2026-04-24 14:00:00+00:00,2,2,2,0,2.26,2.26,2.26,3.78,3.78,3.78,35.68,35.68,35.68,16.55,308.96,-5.79,82.21,52.1361376913645,-106.662942708646
Swift Current,2026-04-24 14:00:00+00:00,2,2,2,0,1.75,1.75,1.75,4.01,4.01,4.01,38.63,38.63,38.63,28.58,292.84,-6.99,90.88,50.2858504122844,-107.816680514048
