station,datetime,AQHI_0,AQHI_1,AQHI_2,AQHI_trend,PM25_0,PM25_1,PM25_2,NO2_0,NO2_1,NO2_2,O3_0,O3_1,O3_2,WS,WD,TEMP,RH,lat,lon
Buffalo Narrows,2026-04-28 12:00:00+00:00,2,2,2,0,1.02,1.02,1.02,0.12,0.12,0.12,31.61,31.61,31.61,3.76,101.84,-2.47,67.39,55.8347917730994,-108.40387034522
Estevan,2026-04-28 12:00:00+00:00,1,1,1,0,5.83,5.83,5.83,7.78,7.78,7.78,5.81,5.81,5.81,3.81,258.48,-7.42,75.3,49.1323647672702,-102.985002018981
Prince Albert,2026-04-28 12:00:00+00:00,2,2,2,0,4.97,4.97,4.97,8.41,8.41,8.41,28.92,28.92,28.92,2.38,282.9,-1.5,66.23,53.2019378757967,-105.751586774025
Regina,2026-04-28 12:00:00+00:00,3,3,3,0,5.71,5.71,5.71,25.87,25.87,25.87,6.07,6.07,6.07,2.67,227.18,-3.63,61.39,50.4502077461615,-104.617125744561
Saskatoon,2026-04-28 12:00:00+00:00,2,2,2,0,4.42,4.42,4.42,11.91,11.91,11.91,19.41,19.41,19.41,5.56,171.23,-2.75,65.32,52.1361376913645,-106.662942708646
Swift Current,2026-04-28 12:00:00+00:00,2,2,2,0,3.49,3.49,3.49,4.68,4.68,4.68,24.56,24.56,24.56,2.54,140.23,-4.46,75.08,50.2858504122844,-107.816680514048
