station,datetime,AQHI_0,AQHI_1,AQHI_2,AQHI_trend,PM25_0,PM25_1,PM25_2,NO2_0,NO2_1,NO2_2,O3_0,O3_1,O3_2,WS,WD,TEMP,RH,lat,lon
Buffalo Narrows,2026-04-29 16:00:00+00:00,2,2,2,0,3.34,3.34,3.34,0.53,0.53,0.53,33.76,33.76,33.76,4.3,186.73,1.09,56.12,55.8347917730994,-108.40387034522
Estevan,2026-04-29 16:00:00+00:00,2,2,2,0,4.09,4.09,4.09,2.68,2.68,2.68,36.82,36.82,36.82,10.88,338.77,2.86,43.84,49.1323647672702,-102.985002018981
Prince Albert,2026-04-29 16:00:00+00:00,2,2,2,0,5.18,5.18,5.18,1.73,1.73,1.73,40.23,40.23,40.23,7.32,334.18,5.25,42.76,53.2019378757967,-105.751586774025
Regina,2026-04-29 16:00:00+00:00,2,2,2,0,6.05,6.05,6.05,4.09,4.09,4.09,31.69,31.69,31.69,12.99,276.23,4.04,46.96,50.4502077461615,-104.617125744561
Saskatoon,2026-04-29 16:00:00+00:00,2,2,2,0,4.97,4.97,4.97,3.25,3.25,3.25,30.2,30.2,30.2,9.72,258.61,6.36,46.02,52.1361376913645,-106.662942708646
Swift Current,2026-04-29 16:00:00+00:00,3,3,3,0,6.74,6.74,6.74,11.73,11.73,11.73,23.39,23.39,23.39,2.6,212.34,5.38,54.01,50.2858504122844,-107.816680514048
