station,datetime,AQHI_0,AQHI_1,AQHI_2,AQHI_trend,PM25_0,PM25_1,PM25_2,NO2_0,NO2_1,NO2_2,O3_0,O3_1,O3_2,WS,WD,TEMP,RH,lat,lon
Buffalo Narrows,2026-05-04 01:00:00+00:00,2,2,2,0,2.2,2.2,2.2,0.2,0.2,0.2,38.43,38.43,38.43,15.45,321.66,4.56,60.22,55.8347917730994,-108.40387034522
Estevan,2026-05-04 01:00:00+00:00,3,3,3,0,5.29,5.29,5.29,1.31,1.31,1.31,46.99,46.99,46.99,24.39,296.4,21.58,22.09,49.1323647672702,-102.985002018981
Prince Albert,2026-05-04 01:00:00+00:00,3,3,3,0,2.41,2.41,2.41,0.61,0.61,0.61,48.2,48.2,48.2,13.67,335.73,8.64,45.97,53.2019378757967,-105.751586774025
Regina,2026-05-04 01:00:00+00:00,3,3,3,0,5.54,5.54,5.54,1.66,1.66,1.66,41.14,41.14,41.14,25.14,339.01,15.52,25.82,50.4502077461615,-104.617125744561
Saskatoon,2026-05-04 01:00:00+00:00,3,3,3,0,10.44,10.44,10.44,1.29,1.29,1.29,47.95,47.95,47.95,32.31,345.51,12.52,36.68,52.1361376913645,-106.662942708646
Swift Current,2026-05-04 01:00:00+00:00,3,3,3,0,4.79,4.79,4.79,1.8,1.8,1.8,47.63,47.63,47.63,31.42,330.73,17.79,23.72,50.2858504122844,-107.816680514048
