station,datetime,AQHI_0,AQHI_1,AQHI_2,AQHI_trend,PM25_0,PM25_1,PM25_2,NO2_0,NO2_1,NO2_2,O3_0,O3_1,O3_2,WS,WD,TEMP,RH,lat,lon
Buffalo Narrows,2026-04-25 17:00:00+00:00,2,2,2,0,0.96,0.96,0.96,0.29,0.29,0.29,34.09,34.09,34.09,16.13,343.72,-5.47,76.71,55.8347917730994,-108.40387034522
Estevan,2026-04-25 17:00:00+00:00,2,2,2,0,1.8,1.8,1.8,1.2,1.2,1.2,32.06,32.06,32.06,24.59,252.57,-2.55,47.93,49.1323647672702,-102.985002018981
Prince Albert,2026-04-25 17:00:00+00:00,2,2,2,0,0.53,0.53,0.53,1.0,1.0,1.0,34.21,34.21,34.21,9.3,317.53,-2.29,73.08,53.2019378757967,-105.751586774025
Regina,2026-04-25 17:00:00+00:00,2,2,2,0,1.87,1.87,1.87,1.7,1.7,1.7,29.5,29.5,29.5,23.7,272.17,-4.1,70.49,50.4502077461615,-104.617125744561
Saskatoon,2026-04-25 17:00:00+00:00,2,2,2,0,0.65,0.65,0.65,2.28,2.28,2.28,32.95,32.95,32.95,15.58,317.93,-3.91,73.16,52.1361376913645,-106.662942708646
Swift Current,2026-04-25 17:00:00+00:00,2,2,2,0,1.81,1.81,1.81,2.64,2.64,2.64,36.57,36.57,36.57,25.1,293.45,-6.37,92.97,50.2858504122844,-107.816680514048
