station,datetime,AQHI_0,AQHI_1,AQHI_2,AQHI_trend,PM25_0,PM25_1,PM25_2,NO2_0,NO2_1,NO2_2,O3_0,O3_1,O3_2,WS,WD,TEMP,RH,lat,lon
Buffalo Narrows,2026-04-26 12:00:00+00:00,2,2,2,0,1.5,1.5,1.5,0.04,0.04,0.04,33.6,33.6,33.6,16.93,345.0,-6.26,80.12,55.8347917730994,-108.40387034522
Estevan,2026-04-26 12:00:00+00:00,2,2,2,0,3.6,3.6,3.6,6.34,6.34,6.34,17.98,17.98,17.98,3.67,244.98,-6.2,69.18,49.1323647672702,-102.985002018981
Prince Albert,2026-04-26 12:00:00+00:00,2,2,2,0,2.48,2.48,2.48,6.86,6.86,6.86,27.81,27.81,27.81,1.84,310.21,-4.31,78.67,53.2019378757967,-105.751586774025
Regina,2026-04-26 12:00:00+00:00,2,2,2,0,2.69,2.69,2.69,5.51,5.51,5.51,25.3,25.3,25.3,10.1,252.63,-4.86,76.51,50.4502077461615,-104.617125744561
Saskatoon,2026-04-26 12:00:00+00:00,2,2,2,0,1.65,1.65,1.65,6.52,6.52,6.52,24.63,24.63,24.63,9.58,227.01,-4.38,76.87,52.1361376913645,-106.662942708646
Swift Current,2026-04-26 12:00:00+00:00,2,2,2,0,3.33,3.33,3.33,5.75,5.75,5.75,33.13,33.13,33.13,13.57,280.23,-7.01,96.14,50.2858504122844,-107.816680514048
