station,datetime,AQHI_0,AQHI_1,AQHI_2,AQHI_trend,PM25_0,PM25_1,PM25_2,NO2_0,NO2_1,NO2_2,O3_0,O3_1,O3_2,WS,WD,TEMP,RH,lat,lon
Buffalo Narrows,2026-05-02 23:00:00+00:00,3,3,3,0,2.04,2.04,2.04,0.32,0.32,0.32,49.27,49.27,49.27,5.09,354.75,13.93,27.09,55.8347917730994,-108.40387034522
Estevan,2026-05-02 23:00:00+00:00,3,3,3,0,3.37,3.37,3.37,1.5,1.5,1.5,43.48,43.48,43.48,17.32,325.82,17.87,24.26,49.1323647672702,-102.985002018981
Prince Albert,2026-05-02 23:00:00+00:00,3,3,3,0,4.84,4.84,4.84,0.86,0.86,0.86,43.21,43.21,43.21,10.21,308.17,17.58,25.7,53.2019378757967,-105.751586774025
Regina,2026-05-02 23:00:00+00:00,2,2,2,0,3.62,3.62,3.62,1.4,1.4,1.4,40.08,40.08,40.08,16.99,328.03,17.27,25.25,50.4502077461615,-104.617125744561
Saskatoon,2026-05-02 23:00:00+00:00,3,3,3,0,3.8,3.8,3.8,1.24,1.24,1.24,45.02,45.02,45.02,14.72,302.86,19.73,19.67,52.1361376913645,-106.662942708646
Swift Current,2026-05-02 23:00:00+00:00,3,3,3,0,3.11,3.11,3.11,2.25,2.25,2.25,46.9,46.9,46.9,9.78,286.85,18.17,24.41,50.2858504122844,-107.816680514048
