station,datetime,AQHI_0,AQHI_1,AQHI_2,AQHI_trend,PM25_0,PM25_1,PM25_2,NO2_0,NO2_1,NO2_2,O3_0,O3_1,O3_2,WS,WD,TEMP,RH,lat,lon
Buffalo Narrows,2026-04-29 13:00:00+00:00,2,2,2,0,3.11,3.11,3.11,1.36,1.36,1.36,23.97,23.97,23.97,1.4,168.96,-5.61,75.64,55.8347917730994,-108.40387034522
Estevan,2026-04-29 13:00:00+00:00,2,2,2,0,5.21,5.21,5.21,7.11,7.11,7.11,22.97,22.97,22.97,8.51,353.91,-2.46,63.14,49.1323647672702,-102.985002018981
Prince Albert,2026-04-29 13:00:00+00:00,2,2,2,0,4.84,4.84,4.84,5.85,5.85,5.85,33.27,33.27,33.27,4.33,274.93,1.96,55.64,53.2019378757967,-105.751586774025
Regina,2026-04-29 13:00:00+00:00,2,2,2,0,6.25,6.25,6.25,13.79,13.79,13.79,14.38,14.38,14.38,4.81,281.96,-1.99,64.99,50.4502077461615,-104.617125744561
Saskatoon,2026-04-29 13:00:00+00:00,2,2,2,0,5.58,5.58,5.58,10.66,10.66,10.66,18.3,18.3,18.3,7.16,203.16,1.02,61.16,52.1361376913645,-106.662942708646
Swift Current,2026-04-29 13:00:00+00:00,2,2,2,0,6.33,6.33,6.33,13.93,13.93,13.93,12.84,12.84,12.84,3.42,130.55,-3.17,82.91,50.2858504122844,-107.816680514048
