station,datetime,AQHI_0,AQHI_1,AQHI_2,AQHI_trend,PM25_0,PM25_1,PM25_2,NO2_0,NO2_1,NO2_2,O3_0,O3_1,O3_2,WS,WD,TEMP,RH,lat,lon
Buffalo Narrows,2026-05-02 16:00:00+00:00,2,2,2,0,0.78,0.78,0.78,0.27,0.27,0.27,40.96,40.96,40.96,3.58,154.3,6.07,43.89,55.8347917730994,-108.40387034522
Estevan,2026-05-02 16:00:00+00:00,3,3,3,0,8.38,8.38,8.38,2.73,2.73,2.73,40.97,40.97,40.97,20.23,304.51,13.57,40.45,49.1323647672702,-102.985002018981
Prince Albert,2026-05-02 16:00:00+00:00,2,2,2,0,4.71,4.71,4.71,1.0,1.0,1.0,40.29,40.29,40.29,3.98,313.46,11.31,43.82,53.2019378757967,-105.751586774025
Regina,2026-05-02 16:00:00+00:00,2,2,2,0,7.2,7.2,7.2,2.03,2.03,2.03,36.37,36.37,36.37,21.35,351.68,11.94,42.93,50.4502077461615,-104.617125744561
Saskatoon,2026-05-02 16:00:00+00:00,3,3,3,0,5.63,5.63,5.63,2.45,2.45,2.45,40.07,40.07,40.07,8.39,342.39,12.03,48.44,52.1361376913645,-106.662942708646
Swift Current,2026-05-02 16:00:00+00:00,3,3,3,0,4.26,4.26,4.26,2.7,2.7,2.7,42.64,42.64,42.64,7.51,352.01,13.41,44.03,50.2858504122844,-107.816680514048
