station,datetime,AQHI_0,AQHI_1,AQHI_2,AQHI_trend,PM25_0,PM25_1,PM25_2,NO2_0,NO2_1,NO2_2,O3_0,O3_1,O3_2,WS,WD,TEMP,RH,lat,lon
Buffalo Narrows,2026-04-25 13:00:00+00:00,2,2,2,0,1.07,1.07,1.07,0.07,0.07,0.07,32.3,32.3,32.3,15.24,343.68,-6.98,81.08,55.8347917730994,-108.40387034522
Estevan,2026-04-25 13:00:00+00:00,2,2,2,0,2.06,2.06,2.06,1.48,1.48,1.48,31.03,31.03,31.03,20.81,232.04,-6.38,69.92,49.1323647672702,-102.985002018981
Prince Albert,2026-04-25 13:00:00+00:00,2,2,2,0,1.91,1.91,1.91,2.64,2.64,2.64,33.1,33.1,33.1,6.01,337.64,-3.24,78.87,53.2019378757967,-105.751586774025
Regina,2026-04-25 13:00:00+00:00,2,2,2,0,2.36,2.36,2.36,3.14,3.14,3.14,27.74,27.74,27.74,14.73,244.8,-6.84,75.38,50.4502077461615,-104.617125744561
Saskatoon,2026-04-25 13:00:00+00:00,2,2,2,0,0.6,0.6,0.6,3.95,3.95,3.95,30.86,30.86,30.86,14.85,344.71,-5.27,77.17,52.1361376913645,-106.662942708646
Swift Current,2026-04-25 13:00:00+00:00,2,2,2,0,1.52,1.52,1.52,3.42,3.42,3.42,35.39,35.39,35.39,24.33,295.93,-7.53,95.27,50.2858504122844,-107.816680514048
