station,datetime,AQHI_0,AQHI_1,AQHI_2,AQHI_trend,PM25_0,PM25_1,PM25_2,NO2_0,NO2_1,NO2_2,O3_0,O3_1,O3_2,WS,WD,TEMP,RH,lat,lon
Buffalo Narrows,2026-04-25 06:00:00+00:00,2,2,2,0,2.18,2.18,2.18,0.06,0.06,0.06,34.88,34.88,34.88,21.4,351.77,-6.55,78.0,55.8347917730994,-108.40387034522
Estevan,2026-04-25 06:00:00+00:00,2,2,2,0,1.74,1.74,1.74,1.72,1.72,1.72,34.37,34.37,34.37,18.84,245.48,-4.82,64.89,49.1323647672702,-102.985002018981
Prince Albert,2026-04-25 06:00:00+00:00,2,2,2,0,0.66,0.66,0.66,1.15,1.15,1.15,35.8,35.8,35.8,8.65,341.8,-3.37,81.29,53.2019378757967,-105.751586774025
Regina,2026-04-25 06:00:00+00:00,2,2,2,0,1.87,1.87,1.87,3.67,3.67,3.67,31.24,31.24,31.24,14.42,273.03,-6.17,71.96,50.4502077461615,-104.617125744561
Saskatoon,2026-04-25 06:00:00+00:00,2,2,2,0,1.45,1.45,1.45,4.1,4.1,4.1,32.03,32.03,32.03,12.69,303.05,-5.76,81.96,52.1361376913645,-106.662942708646
Swift Current,2026-04-25 06:00:00+00:00,2,2,2,0,1.57,1.57,1.57,1.92,1.92,1.92,37.7,37.7,37.7,25.7,282.17,-7.31,94.5,50.2858504122844,-107.816680514048
