station,datetime,AQHI_0,AQHI_1,AQHI_2,AQHI_trend,PM25_0,PM25_1,PM25_2,NO2_0,NO2_1,NO2_2,O3_0,O3_1,O3_2,WS,WD,TEMP,RH,lat,lon
Buffalo Narrows,2026-04-26 10:00:00+00:00,2,2,2,0,1.46,1.46,1.46,0.05,0.05,0.05,33.59,33.59,33.59,16.41,343.98,-6.11,79.03,55.8347917730994,-108.40387034522
Estevan,2026-04-26 10:00:00+00:00,2,2,2,0,3.91,3.91,3.91,5.93,5.93,5.93,16.62,16.62,16.62,5.25,219.37,-6.02,69.06,49.1323647672702,-102.985002018981
Prince Albert,2026-04-26 10:00:00+00:00,2,2,2,0,2.41,2.41,2.41,4.18,4.18,4.18,32.23,32.23,32.23,2.48,310.48,-3.92,78.72,53.2019378757967,-105.751586774025
Regina,2026-04-26 10:00:00+00:00,2,2,2,0,2.98,2.98,2.98,9.23,9.23,9.23,21.48,21.48,21.48,9.32,252.59,-4.83,78.25,50.4502077461615,-104.617125744561
Saskatoon,2026-04-26 10:00:00+00:00,2,2,2,0,1.26,1.26,1.26,4.48,4.48,4.48,27.16,27.16,27.16,7.38,252.55,-4.99,78.76,52.1361376913645,-106.662942708646
Swift Current,2026-04-26 10:00:00+00:00,3,3,3,0,3.21,3.21,3.21,13.9,13.9,13.9,25.07,25.07,25.07,8.84,273.58,-6.21,96.04,50.2858504122844,-107.816680514048
