station,datetime,AQHI_0,AQHI_1,AQHI_2,AQHI_trend,PM25_0,PM25_1,PM25_2,NO2_0,NO2_1,NO2_2,O3_0,O3_1,O3_2,WS,WD,TEMP,RH,lat,lon
Buffalo Narrows,2026-04-24 13:00:00+00:00,2,2,2,0,2.23,2.23,2.23,0.09,0.09,0.09,43.59,43.59,43.59,24.31,343.18,-7.3,80.05,55.8347917730994,-108.40387034522
Estevan,2026-04-24 13:00:00+00:00,2,2,2,0,1.06,1.06,1.06,1.93,1.93,1.93,33.66,33.66,33.66,18.89,253.6,-2.67,68.58,49.1323647672702,-102.985002018981
Prince Albert,2026-04-24 13:00:00+00:00,2,2,2,0,0.4,0.4,0.4,2.22,2.22,2.22,38.5,38.5,38.5,11.47,331.55,-5.22,79.91,53.2019378757967,-105.751586774025
Regina,2026-04-24 13:00:00+00:00,2,2,2,0,1.41,1.41,1.41,3.8,3.8,3.8,31.71,31.71,31.71,17.49,272.89,-4.99,71.23,50.4502077461615,-104.617125744561
Saskatoon,2026-04-24 13:00:00+00:00,2,2,2,0,2.07,2.07,2.07,3.36,3.36,3.36,35.93,35.93,35.93,14.23,308.4,-5.72,81.21,52.1361376913645,-106.662942708646
Swift Current,2026-04-24 13:00:00+00:00,3,3,3,0,1.62,1.62,1.62,5.79,5.79,5.79,37.27,37.27,37.27,26.8,292.21,-7.12,91.09,50.2858504122844,-107.816680514048
