station,datetime,AQHI_0,AQHI_1,AQHI_2,AQHI_trend,PM25_0,PM25_1,PM25_2,NO2_0,NO2_1,NO2_2,O3_0,O3_1,O3_2,WS,WD,TEMP,RH,lat,lon
Buffalo Narrows,2026-05-04 08:00:00+00:00,2,2,2,0,2.78,2.78,2.78,0.19,0.19,0.19,33.36,33.36,33.36,11.68,309.32,1.24,64.37,55.8347917730994,-108.40387034522
Estevan,2026-05-04 08:00:00+00:00,2,2,2,0,1.15,1.15,1.15,1.54,1.54,1.54,36.71,36.71,36.71,14.27,308.42,4.32,55.02,49.1323647672702,-102.985002018981
Prince Albert,2026-05-04 08:00:00+00:00,2,2,2,0,0.97,0.97,0.97,0.6,0.6,0.6,35.93,35.93,35.93,9.41,334.74,1.19,77.27,53.2019378757967,-105.751586774025
Regina,2026-05-04 08:00:00+00:00,2,2,2,0,1.19,1.19,1.19,1.58,1.58,1.58,31.83,31.83,31.83,14.73,344.35,3.47,61.51,50.4502077461615,-104.617125744561
Saskatoon,2026-05-04 08:00:00+00:00,2,2,2,0,2.09,2.09,2.09,2.64,2.64,2.64,34.38,34.38,34.38,9.32,313.3,3.79,62.25,52.1361376913645,-106.662942708646
Swift Current,2026-05-04 08:00:00+00:00,2,2,2,0,1.87,1.87,1.87,2.04,2.04,2.04,38.51,38.51,38.51,10.33,325.09,4.89,60.74,50.2858504122844,-107.816680514048
