station,datetime,AQHI_0,AQHI_1,AQHI_2,AQHI_trend,PM25_0,PM25_1,PM25_2,NO2_0,NO2_1,NO2_2,O3_0,O3_1,O3_2,WS,WD,TEMP,RH,lat,lon
Buffalo Narrows,2026-04-30 22:00:00+00:00,3,3,3,0,2.91,2.91,2.91,0.48,0.48,0.48,51.05,51.05,51.05,7.24,9.87,12.19,32.22,55.8347917730994,-108.40387034522
Estevan,2026-04-30 22:00:00+00:00,2,2,2,0,4.03,4.03,4.03,2.41,2.41,2.41,40.32,40.32,40.32,10.82,321.47,11.14,27.86,49.1323647672702,-102.985002018981
Prince Albert,2026-04-30 22:00:00+00:00,3,3,3,0,9.69,9.69,9.69,3.01,3.01,3.01,50.18,50.18,50.18,10.95,265.81,16.32,25.51,53.2019378757967,-105.751586774025
Regina,2026-04-30 22:00:00+00:00,3,3,3,0,4.76,4.76,4.76,1.83,1.83,1.83,45.68,45.68,45.68,13.5,345.13,13.29,23.69,50.4502077461615,-104.617125744561
Saskatoon,2026-04-30 22:00:00+00:00,3,3,3,0,5.47,5.47,5.47,2.81,2.81,2.81,47.27,47.27,47.27,9.91,255.73,17.32,19.44,52.1361376913645,-106.662942708646
Swift Current,2026-04-30 22:00:00+00:00,3,3,3,0,3.92,3.92,3.92,3.5,3.5,3.5,48.05,48.05,48.05,7.42,310.86,14.53,19.99,50.2858504122844,-107.816680514048
