station,datetime,AQHI_0,AQHI_1,AQHI_2,AQHI_trend,PM25_0,PM25_1,PM25_2,NO2_0,NO2_1,NO2_2,O3_0,O3_1,O3_2,WS,WD,TEMP,RH,lat,lon
Buffalo Narrows,2026-04-25 04:00:00+00:00,2,2,2,0,1.85,1.85,1.85,0.07,0.07,0.07,36.6,36.6,36.6,20.92,352.54,-5.88,80.1,55.8347917730994,-108.40387034522
Estevan,2026-04-25 04:00:00+00:00,2,2,2,0,2.08,2.08,2.08,1.85,1.85,1.85,35.2,35.2,35.2,17.09,245.98,-4.45,64.91,49.1323647672702,-102.985002018981
Prince Albert,2026-04-25 04:00:00+00:00,2,2,2,0,0.27,0.27,0.27,1.52,1.52,1.52,34.88,34.88,34.88,10.2,336.67,-4.11,76.28,53.2019378757967,-105.751586774025
Regina,2026-04-25 04:00:00+00:00,2,2,2,0,1.55,1.55,1.55,3.13,3.13,3.13,32.05,32.05,32.05,16.19,272.3,-5.36,71.9,50.4502077461615,-104.617125744561
Saskatoon,2026-04-25 04:00:00+00:00,2,2,2,0,2.33,2.33,2.33,4.83,4.83,4.83,32.52,32.52,32.52,13.1,304.14,-5.62,80.77,52.1361376913645,-106.662942708646
Swift Current,2026-04-25 04:00:00+00:00,2,2,2,0,1.7,1.7,1.7,2.0,2.0,2.0,38.42,38.42,38.42,23.59,292.98,-7.51,93.51,50.2858504122844,-107.816680514048
