station,datetime,AQHI_0,AQHI_1,AQHI_2,AQHI_trend,PM25_0,PM25_1,PM25_2,NO2_0,NO2_1,NO2_2,O3_0,O3_1,O3_2,WS,WD,TEMP,RH,lat,lon
Buffalo Narrows,2026-05-02 00:00:00+00:00,3,3,3,0,4.0,4.0,4.0,0.86,0.86,0.86,49.02,49.02,49.02,2.6,310.47,13.41,36.22,55.8347917730994,-108.40387034522
Estevan,2026-05-02 00:00:00+00:00,3,3,3,0,5.66,5.66,5.66,1.83,1.83,1.83,49.66,49.66,49.66,16.57,239.05,19.54,16.24,49.1323647672702,-102.985002018981
Prince Albert,2026-05-02 00:00:00+00:00,3,3,3,0,13.86,13.86,13.86,2.69,2.69,2.69,44.45,44.45,44.45,10.06,97.48,12.57,50.67,53.2019378757967,-105.751586774025
Regina,2026-05-02 00:00:00+00:00,3,3,3,0,5.29,5.29,5.29,2.51,2.51,2.51,50.25,50.25,50.25,14.45,245.7,21.22,15.35,50.4502077461615,-104.617125744561
Saskatoon,2026-05-02 00:00:00+00:00,4,4,4,0,8.76,8.76,8.76,3.65,3.65,3.65,55.69,55.69,55.69,12.89,209.95,23.53,15.53,52.1361376913645,-106.662942708646
Swift Current,2026-05-02 00:00:00+00:00,3,3,3,0,6.59,6.59,6.59,2.49,2.49,2.49,52.88,52.88,52.88,14.83,253.08,23.27,15.45,50.2858504122844,-107.816680514048
