station,datetime,AQHI_0,AQHI_1,AQHI_2,AQHI_trend,PM25_0,PM25_1,PM25_2,NO2_0,NO2_1,NO2_2,O3_0,O3_1,O3_2,WS,WD,TEMP,RH,lat,lon
Buffalo Narrows,2026-04-27 14:00:00+00:00,2,2,2,0,0.62,0.62,0.62,0.13,0.13,0.13,33.19,33.19,33.19,4.16,28.29,-6.82,77.29,55.8347917730994,-108.40387034522
Estevan,2026-04-27 14:00:00+00:00,2,2,2,0,3.42,3.42,3.42,4.5,4.5,4.5,20.47,20.47,20.47,10.04,331.42,-3.08,65.02,49.1323647672702,-102.985002018981
Prince Albert,2026-04-27 14:00:00+00:00,2,2,2,0,2.65,2.65,2.65,11.65,11.65,11.65,25.0,25.0,25.0,3.27,247.63,-2.02,70.08,53.2019378757967,-105.751586774025
Regina,2026-04-27 14:00:00+00:00,2,2,2,0,4.41,4.41,4.41,6.04,6.04,6.04,21.76,21.76,21.76,7.47,313.51,-3.09,62.94,50.4502077461615,-104.617125744561
Saskatoon,2026-04-27 14:00:00+00:00,2,2,2,0,3.74,3.74,3.74,7.33,7.33,7.33,24.66,24.66,24.66,6.37,251.47,-1.83,64.96,52.1361376913645,-106.662942708646
Swift Current,2026-04-27 14:00:00+00:00,2,2,2,0,3.42,3.42,3.42,7.94,7.94,7.94,29.07,29.07,29.07,5.43,246.99,-3.61,59.23,50.2858504122844,-107.816680514048
