station,datetime,AQHI_0,AQHI_1,AQHI_2,AQHI_trend,PM25_0,PM25_1,PM25_2,NO2_0,NO2_1,NO2_2,O3_0,O3_1,O3_2,WS,WD,TEMP,RH,lat,lon
Buffalo Narrows,2026-04-28 04:00:00+00:00,2,2,2,0,0.28,0.28,0.28,0.09,0.09,0.09,33.09,33.09,33.09,3.04,359.2,-3.58,64.66,55.8347917730994,-108.40387034522
Estevan,2026-04-28 04:00:00+00:00,2,2,2,0,5.51,5.51,5.51,4.18,4.18,4.18,26.62,26.62,26.62,10.16,324.06,0.17,52.04,49.1323647672702,-102.985002018981
Prince Albert,2026-04-28 04:00:00+00:00,3,3,3,0,5.93,5.93,5.93,5.63,5.63,5.63,35.16,35.16,35.16,5.27,253.5,0.74,57.67,53.2019378757967,-105.751586774025
Regina,2026-04-28 04:00:00+00:00,2,2,2,0,4.54,4.54,4.54,8.68,8.68,8.68,25.68,25.68,25.68,5.58,89.46,0.45,48.55,50.4502077461615,-104.617125744561
Saskatoon,2026-04-28 04:00:00+00:00,3,3,3,0,5.3,5.3,5.3,9.92,9.92,9.92,30.25,30.25,30.25,3.59,359.89,0.05,57.84,52.1361376913645,-106.662942708646
Swift Current,2026-04-28 04:00:00+00:00,2,2,2,0,5.09,5.09,5.09,9.02,9.02,9.02,26.41,26.41,26.41,4.3,63.97,-0.8,60.72,50.2858504122844,-107.816680514048
