station,datetime,AQHI_0,AQHI_1,AQHI_2,AQHI_trend,PM25_0,PM25_1,PM25_2,NO2_0,NO2_1,NO2_2,O3_0,O3_1,O3_2,WS,WD,TEMP,RH,lat,lon
Buffalo Narrows,2026-04-30 01:00:00+00:00,3,3,3,0,2.53,2.53,2.53,0.46,0.46,0.46,46.9,46.9,46.9,2.84,103.24,10.92,27.56,55.8347917730994,-108.40387034522
Estevan,2026-04-30 01:00:00+00:00,3,3,3,0,5.11,5.11,5.11,3.48,3.48,3.48,40.63,40.63,40.63,10.27,264.25,8.94,27.85,49.1323647672702,-102.985002018981
Prince Albert,2026-04-30 01:00:00+00:00,3,3,3,0,6.27,6.27,6.27,2.9,2.9,2.9,38.4,38.4,38.4,7.72,180.52,7.51,45.1,53.2019378757967,-105.751586774025
Regina,2026-04-30 01:00:00+00:00,3,3,3,0,5.65,5.65,5.65,2.96,2.96,2.96,39.56,39.56,39.56,15.29,338.33,10.03,37.77,50.4502077461615,-104.617125744561
Saskatoon,2026-04-30 01:00:00+00:00,3,3,3,0,5.67,5.67,5.67,3.12,3.12,3.12,42.17,42.17,42.17,6.62,33.2,10.88,36.34,52.1361376913645,-106.662942708646
Swift Current,2026-04-30 01:00:00+00:00,3,3,3,0,3.59,3.59,3.59,4.62,4.62,4.62,48.24,48.24,48.24,10.3,311.28,11.8,26.48,50.2858504122844,-107.816680514048
