station,datetime,AQHI_0,AQHI_1,AQHI_2,AQHI_trend,PM25_0,PM25_1,PM25_2,NO2_0,NO2_1,NO2_2,O3_0,O3_1,O3_2,WS,WD,TEMP,RH,lat,lon
Buffalo Narrows,2026-04-24 05:00:00+00:00,2,2,2,0,1.4,1.4,1.4,0.09,0.09,0.09,41.52,41.52,41.52,22.87,346.47,-5.92,81.29,55.8347917730994,-108.40387034522
Estevan,2026-04-24 05:00:00+00:00,2,2,2,0,1.89,1.89,1.89,2.39,2.39,2.39,30.67,30.67,30.67,21.74,256.93,1.8,56.19,49.1323647672702,-102.985002018981
Prince Albert,2026-04-24 05:00:00+00:00,2,2,2,0,1.46,1.46,1.46,0.97,0.97,0.97,40.47,40.47,40.47,10.3,318.8,-5.17,78.26,53.2019378757967,-105.751586774025
Regina,2026-04-24 05:00:00+00:00,2,2,2,0,1.38,1.38,1.38,1.88,1.88,1.88,32.12,32.12,32.12,20.14,291.77,-0.57,62.18,50.4502077461615,-104.617125744561
Saskatoon,2026-04-24 05:00:00+00:00,2,2,2,0,1.04,1.04,1.04,2.51,2.51,2.51,36.66,36.66,36.66,14.11,327.87,-3.88,67.94,52.1361376913645,-106.662942708646
Swift Current,2026-04-24 05:00:00+00:00,2,2,2,0,1.42,1.42,1.42,2.35,2.35,2.35,37.77,37.77,37.77,23.89,302.14,-2.95,91.61,50.2858504122844,-107.816680514048
