station,datetime,AQHI_0,AQHI_1,AQHI_2,AQHI_trend,PM25_0,PM25_1,PM25_2,NO2_0,NO2_1,NO2_2,O3_0,O3_1,O3_2,WS,WD,TEMP,RH,lat,lon
Buffalo Narrows,2026-04-27 04:00:00+00:00,2,2,2,0,1.06,1.06,1.06,0.19,0.19,0.19,34.69,34.69,34.69,5.97,343.91,-3.5,81.05,55.8347917730994,-108.40387034522
Estevan,2026-04-27 04:00:00+00:00,2,2,2,0,3.57,3.57,3.57,3.24,3.24,3.24,32.87,32.87,32.87,8.29,335.33,-1.15,79.44,49.1323647672702,-102.985002018981
Prince Albert,2026-04-27 04:00:00+00:00,2,2,2,0,1.42,1.42,1.42,4.63,4.63,4.63,30.12,30.12,30.12,3.27,276.95,-0.75,61.77,53.2019378757967,-105.751586774025
Regina,2026-04-27 04:00:00+00:00,2,2,2,0,3.0,3.0,3.0,3.61,3.61,3.61,28.15,28.15,28.15,10.25,315.79,-0.65,51.27,50.4502077461615,-104.617125744561
Saskatoon,2026-04-27 04:00:00+00:00,2,2,2,0,2.13,2.13,2.13,5.01,5.01,5.01,29.79,29.79,29.79,6.57,266.42,-0.63,61.19,52.1361376913645,-106.662942708646
Swift Current,2026-04-27 04:00:00+00:00,2,2,2,0,2.95,2.95,2.95,4.42,4.42,4.42,32.76,32.76,32.76,7.71,316.69,-3.42,66.31,50.2858504122844,-107.816680514048
