station,datetime,AQHI_0,AQHI_1,AQHI_2,AQHI_trend,PM25_0,PM25_1,PM25_2,NO2_0,NO2_1,NO2_2,O3_0,O3_1,O3_2,WS,WD,TEMP,RH,lat,lon
Buffalo Narrows,2026-05-02 15:00:00+00:00,2,2,2,0,1.02,1.02,1.02,0.95,0.95,0.95,40.24,40.24,40.24,2.82,286.76,5.48,45.93,55.8347917730994,-108.40387034522
Estevan,2026-05-02 15:00:00+00:00,2,2,2,0,7.09,7.09,7.09,3.38,3.38,3.38,30.76,30.76,30.76,14.9,288.84,12.1,45.3,49.1323647672702,-102.985002018981
Prince Albert,2026-05-02 15:00:00+00:00,2,2,2,0,4.31,4.31,4.31,1.35,1.35,1.35,40.06,40.06,40.06,4.91,325.44,8.91,52.87,53.2019378757967,-105.751586774025
Regina,2026-05-02 15:00:00+00:00,2,2,2,0,6.62,6.62,6.62,2.39,2.39,2.39,34.41,34.41,34.41,17.54,344.09,10.49,49.32,50.4502077461615,-104.617125744561
Saskatoon,2026-05-02 15:00:00+00:00,2,2,2,0,5.32,5.32,5.32,2.87,2.87,2.87,36.35,36.35,36.35,9.52,340.54,10.07,56.05,52.1361376913645,-106.662942708646
Swift Current,2026-05-02 15:00:00+00:00,3,3,3,0,5.29,5.29,5.29,3.89,3.89,3.89,36.97,36.97,36.97,6.81,342.88,11.4,54.23,50.2858504122844,-107.816680514048
