station,datetime,AQHI_0,AQHI_1,AQHI_2,AQHI_trend,PM25_0,PM25_1,PM25_2,NO2_0,NO2_1,NO2_2,O3_0,O3_1,O3_2,WS,WD,TEMP,RH,lat,lon
Buffalo Narrows,2026-04-29 15:00:00+00:00,2,2,2,0,3.35,3.35,3.35,0.61,0.61,0.61,32.14,32.14,32.14,5.72,206.67,-0.96,62.91,55.8347917730994,-108.40387034522
Estevan,2026-04-29 15:00:00+00:00,2,2,2,0,4.79,4.79,4.79,3.8,3.8,3.8,35.91,35.91,35.91,11.43,347.3,1.99,47.75,49.1323647672702,-102.985002018981
Prince Albert,2026-04-29 15:00:00+00:00,3,3,3,0,6.5,6.5,6.5,2.05,2.05,2.05,40.04,40.04,40.04,8.42,319.57,4.66,43.51,53.2019378757967,-105.751586774025
Regina,2026-04-29 15:00:00+00:00,2,2,2,0,7.58,7.58,7.58,6.86,6.86,6.86,23.84,23.84,23.84,10.64,286.68,1.51,56.54,50.4502077461615,-104.617125744561
Saskatoon,2026-04-29 15:00:00+00:00,2,2,2,0,5.74,5.74,5.74,5.44,5.44,5.44,25.9,25.9,25.9,10.28,236.31,3.37,53.75,52.1361376913645,-106.662942708646
Swift Current,2026-04-29 15:00:00+00:00,2,2,2,0,6.02,6.02,6.02,5.13,5.13,5.13,21.44,21.44,21.44,2.44,204.73,0.44,75.46,50.2858504122844,-107.816680514048
