station,datetime,AQHI_0,AQHI_1,AQHI_2,AQHI_trend,PM25_0,PM25_1,PM25_2,NO2_0,NO2_1,NO2_2,O3_0,O3_1,O3_2,WS,WD,TEMP,RH,lat,lon
Buffalo Narrows,2026-04-28 08:00:00+00:00,2,2,2,0,0.52,0.52,0.52,0.06,0.06,0.06,31.78,31.78,31.78,2.8,106.74,-2.02,65.83,55.8347917730994,-108.40387034522
Estevan,2026-04-28 08:00:00+00:00,1,1,1,0,4.05,4.05,4.05,7.73,7.73,7.73,9.82,9.82,9.82,4.31,265.11,-4.41,69.15,49.1323647672702,-102.985002018981
Prince Albert,2026-04-28 08:00:00+00:00,2,2,2,0,4.7,4.7,4.7,6.41,6.41,6.41,32.66,32.66,32.66,3.15,290.14,-1.06,63.68,53.2019378757967,-105.751586774025
Regina,2026-04-28 08:00:00+00:00,3,3,3,0,7.66,7.66,7.66,23.86,23.86,23.86,4.99,4.99,4.99,3.85,232.34,-2.35,63.93,50.4502077461615,-104.617125744561
Saskatoon,2026-04-28 08:00:00+00:00,2,2,2,0,4.67,4.67,4.67,9.57,9.57,9.57,25.76,25.76,25.76,4.19,141.77,-1.66,62.74,52.1361376913645,-106.662942708646
Swift Current,2026-04-28 08:00:00+00:00,2,2,2,0,2.96,2.96,2.96,3.01,3.01,3.01,27.29,27.29,27.29,3.55,151.45,-3.57,74.97,50.2858504122844,-107.816680514048
