station,datetime,AQHI_0,AQHI_1,AQHI_2,AQHI_trend,PM25_0,PM25_1,PM25_2,NO2_0,NO2_1,NO2_2,O3_0,O3_1,O3_2,WS,WD,TEMP,RH,lat,lon
Buffalo Narrows,2026-05-04 02:00:00+00:00,2,2,2,0,1.5,1.5,1.5,0.13,0.13,0.13,36.15,36.15,36.15,18.41,330.46,3.78,63.22,55.8347917730994,-108.40387034522
Estevan,2026-05-04 02:00:00+00:00,3,3,3,0,11.28,11.28,11.28,1.39,1.39,1.39,45.36,45.36,45.36,24.63,337.22,16.27,33.36,49.1323647672702,-102.985002018981
Prince Albert,2026-05-04 02:00:00+00:00,3,3,3,0,1.48,1.48,1.48,0.54,0.54,0.54,46.6,46.6,46.6,13.74,336.1,6.72,50.21,53.2019378757967,-105.751586774025
Regina,2026-05-04 02:00:00+00:00,2,2,2,0,4.63,4.63,4.63,1.6,1.6,1.6,40.96,40.96,40.96,24.64,340.26,14.56,27.2,50.4502077461615,-104.617125744561
Saskatoon,2026-05-04 02:00:00+00:00,3,3,3,0,2.8,2.8,2.8,1.69,1.69,1.69,46.17,46.17,46.17,23.15,348.11,10.73,42.02,52.1361376913645,-106.662942708646
Swift Current,2026-05-04 02:00:00+00:00,3,3,3,0,5.0,5.0,5.0,1.73,1.73,1.73,48.04,48.04,48.04,25.1,321.59,15.63,25.76,50.2858504122844,-107.816680514048
