station,datetime,AQHI_0,AQHI_1,AQHI_2,AQHI_trend,PM25_0,PM25_1,PM25_2,NO2_0,NO2_1,NO2_2,O3_0,O3_1,O3_2,WS,WD,TEMP,RH,lat,lon
Buffalo Narrows,2026-04-29 20:00:00+00:00,3,3,3,0,2.87,2.87,2.87,0.61,0.61,0.61,44.91,44.91,44.91,6.35,30.79,6.27,36.97,55.8347917730994,-108.40387034522
Estevan,2026-04-29 20:00:00+00:00,2,2,2,0,4.07,4.07,4.07,2.45,2.45,2.45,38.7,38.7,38.7,9.11,326.48,7.22,32.37,49.1323647672702,-102.985002018981
Prince Albert,2026-04-29 20:00:00+00:00,3,3,3,0,6.6,6.6,6.6,1.9,1.9,1.9,39.44,39.44,39.44,4.81,322.33,7.82,35.46,53.2019378757967,-105.751586774025
Regina,2026-04-29 20:00:00+00:00,2,2,2,0,4.19,4.19,4.19,2.03,2.03,2.03,40.74,40.74,40.74,15.03,295.68,9.05,31.57,50.4502077461615,-104.617125744561
Saskatoon,2026-04-29 20:00:00+00:00,3,3,3,0,5.66,5.66,5.66,2.47,2.47,2.47,42.51,42.51,42.51,13.48,329.95,11.49,31.79,52.1361376913645,-106.662942708646
Swift Current,2026-04-29 20:00:00+00:00,3,3,3,0,4.54,4.54,4.54,3.18,3.18,3.18,40.74,40.74,40.74,8.75,315.0,9.9,30.65,50.2858504122844,-107.816680514048
