station,datetime,AQHI_0,AQHI_1,AQHI_2,AQHI_trend,PM25_0,PM25_1,PM25_2,NO2_0,NO2_1,NO2_2,O3_0,O3_1,O3_2,WS,WD,TEMP,RH,lat,lon
Buffalo Narrows,2026-04-27 08:00:00+00:00,2,2,2,0,0.84,0.84,0.84,0.19,0.19,0.19,34.16,34.16,34.16,4.91,312.25,-5.4,75.04,55.8347917730994,-108.40387034522
Estevan,2026-04-27 08:00:00+00:00,2,2,2,0,5.12,5.12,5.12,3.96,3.96,3.96,24.52,24.52,24.52,6.08,337.68,-1.15,66.43,49.1323647672702,-102.985002018981
Prince Albert,2026-04-27 08:00:00+00:00,2,2,2,0,1.1,1.1,1.1,4.15,4.15,4.15,30.63,30.63,30.63,3.28,279.1,-2.38,71.52,53.2019378757967,-105.751586774025
Regina,2026-04-27 08:00:00+00:00,2,2,2,0,2.8,2.8,2.8,6.76,6.76,6.76,21.81,21.81,21.81,6.46,285.62,-3.0,58.5,50.4502077461615,-104.617125744561
Saskatoon,2026-04-27 08:00:00+00:00,2,2,2,0,2.98,2.98,2.98,3.29,3.29,3.29,31.6,31.6,31.6,7.1,275.44,-1.32,64.74,52.1361376913645,-106.662942708646
Swift Current,2026-04-27 08:00:00+00:00,2,2,2,0,3.06,3.06,3.06,3.49,3.49,3.49,30.89,30.89,30.89,5.84,300.69,-3.62,67.88,50.2858504122844,-107.816680514048
