station,datetime,AQHI_0,AQHI_1,AQHI_2,AQHI_trend,PM25_0,PM25_1,PM25_2,NO2_0,NO2_1,NO2_2,O3_0,O3_1,O3_2,WS,WD,TEMP,RH,lat,lon
Buffalo Narrows,2026-04-30 14:00:00+00:00,2,2,2,0,2.53,2.53,2.53,0.38,0.38,0.38,44.25,44.25,44.25,11.61,238.82,5.08,43.83,55.8347917730994,-108.40387034522
Estevan,2026-04-30 14:00:00+00:00,2,2,2,0,4.41,4.41,4.41,6.48,6.48,6.48,21.77,21.77,21.77,4.49,347.18,0.16,60.7,49.1323647672702,-102.985002018981
Prince Albert,2026-04-30 14:00:00+00:00,2,2,2,0,7.33,7.33,7.33,7.73,7.73,7.73,17.72,17.72,17.72,3.72,300.7,-0.09,71.57,53.2019378757967,-105.751586774025
Regina,2026-04-30 14:00:00+00:00,3,3,3,0,10.01,10.01,10.01,21.01,21.01,21.01,13.32,13.32,13.32,3.07,290.67,1.24,58.39,50.4502077461615,-104.617125744561
Saskatoon,2026-04-30 14:00:00+00:00,2,2,2,0,6.35,6.35,6.35,8.95,8.95,8.95,14.97,14.97,14.97,6.9,197.61,0.86,70.79,52.1361376913645,-106.662942708646
Swift Current,2026-04-30 14:00:00+00:00,2,2,2,0,5.85,5.85,5.85,3.99,3.99,3.99,23.13,23.13,23.13,3.28,176.74,1.01,68.31,50.2858504122844,-107.816680514048
