station,datetime,AQHI_0,AQHI_1,AQHI_2,AQHI_trend,PM25_0,PM25_1,PM25_2,NO2_0,NO2_1,NO2_2,O3_0,O3_1,O3_2,WS,WD,TEMP,RH,lat,lon
Buffalo Narrows,2026-04-28 07:00:00+00:00,2,2,2,0,0.52,0.52,0.52,0.38,0.38,0.38,31.78,31.78,31.78,2.61,54.0,-1.85,64.09,55.8347917730994,-108.40387034522
Estevan,2026-04-28 07:00:00+00:00,1,1,1,0,3.86,3.86,3.86,6.79,6.79,6.79,13.58,13.58,13.58,3.46,287.06,-2.98,64.02,49.1323647672702,-102.985002018981
Prince Albert,2026-04-28 07:00:00+00:00,3,3,3,0,4.71,4.71,4.71,7.67,7.67,7.67,32.15,32.15,32.15,3.32,269.51,-0.53,61.82,53.2019378757967,-105.751586774025
Regina,2026-04-28 07:00:00+00:00,3,3,3,0,12.39,12.39,12.39,30.02,30.02,30.02,2.73,2.73,2.73,2.74,272.77,-1.38,59.29,50.4502077461615,-104.617125744561
Saskatoon,2026-04-28 07:00:00+00:00,3,3,3,0,4.76,4.76,4.76,10.08,10.08,10.08,28.25,28.25,28.25,3.7,138.74,-0.98,61.39,52.1361376913645,-106.662942708646
Swift Current,2026-04-28 07:00:00+00:00,2,2,2,0,3.14,3.14,3.14,4.43,4.43,4.43,24.78,24.78,24.78,5.15,128.2,-3.42,76.0,50.2858504122844,-107.816680514048
