station,datetime,AQHI_0,AQHI_1,AQHI_2,AQHI_trend,PM25_0,PM25_1,PM25_2,NO2_0,NO2_1,NO2_2,O3_0,O3_1,O3_2,WS,WD,TEMP,RH,lat,lon
Buffalo Narrows,2026-05-01 21:00:00+00:00,3,3,3,0,5.71,5.71,5.71,0.71,0.71,0.71,50.69,50.69,50.69,7.62,320.96,12.15,37.28,55.8347917730994,-108.40387034522
Estevan,2026-05-01 21:00:00+00:00,3,3,3,0,5.67,5.67,5.67,1.72,1.72,1.72,48.94,48.94,48.94,13.0,259.52,18.72,17.98,49.1323647672702,-102.985002018981
Prince Albert,2026-05-01 21:00:00+00:00,3,3,3,0,12.5,12.5,12.5,2.36,2.36,2.36,42.64,42.64,42.64,9.48,107.37,15.15,44.35,53.2019378757967,-105.751586774025
Regina,2026-05-01 21:00:00+00:00,3,3,3,0,4.29,4.29,4.29,2.52,2.52,2.52,49.1,49.1,49.1,12.73,224.93,19.7,15.43,50.4502077461615,-104.617125744561
Saskatoon,2026-05-01 21:00:00+00:00,3,3,3,0,6.61,6.61,6.61,2.29,2.29,2.29,54.5,54.5,54.5,11.65,223.26,23.06,15.55,52.1361376913645,-106.662942708646
Swift Current,2026-05-01 21:00:00+00:00,3,3,3,0,4.67,4.67,4.67,2.55,2.55,2.55,53.21,53.21,53.21,7.51,263.49,21.84,14.78,50.2858504122844,-107.816680514048
