station,datetime,AQHI_0,AQHI_1,AQHI_2,AQHI_trend,PM25_0,PM25_1,PM25_2,NO2_0,NO2_1,NO2_2,O3_0,O3_1,O3_2,WS,WD,TEMP,RH,lat,lon
Buffalo Narrows,2026-05-01 10:00:00+00:00,2,2,2,0,3.1,3.1,3.1,0.17,0.17,0.17,40.71,40.71,40.71,3.58,107.02,3.95,52.9,55.8347917730994,-108.40387034522
Estevan,2026-05-01 10:00:00+00:00,2,2,2,0,6.24,6.24,6.24,6.23,6.23,6.23,14.45,14.45,14.45,4.84,248.15,-0.33,62.45,49.1323647672702,-102.985002018981
Prince Albert,2026-05-01 10:00:00+00:00,2,2,2,0,11.78,11.78,11.78,14.51,14.51,14.51,13.85,13.85,13.85,2.62,124.55,2.65,65.67,53.2019378757967,-105.751586774025
Regina,2026-05-01 10:00:00+00:00,2,2,2,0,4.86,4.86,4.86,9.49,9.49,9.49,23.55,23.55,23.55,7.66,216.48,5.08,45.32,50.4502077461615,-104.617125744561
Saskatoon,2026-05-01 10:00:00+00:00,2,2,2,0,3.98,3.98,3.98,5.73,5.73,5.73,32.23,32.23,32.23,6.96,208.75,5.91,45.3,52.1361376913645,-106.662942708646
Swift Current,2026-05-01 10:00:00+00:00,2,2,2,0,3.93,3.93,3.93,4.3,4.3,4.3,34.15,34.15,34.15,2.9,298.52,4.51,49.65,50.2858504122844,-107.816680514048
