station,datetime,AQHI_0,AQHI_1,AQHI_2,AQHI_trend,PM25_0,PM25_1,PM25_2,NO2_0,NO2_1,NO2_2,O3_0,O3_1,O3_2,WS,WD,TEMP,RH,lat,lon
Buffalo Narrows,2026-05-01 19:00:00+00:00,3,3,3,0,3.72,3.72,3.72,0.6,0.6,0.6,48.2,48.2,48.2,5.89,6.93,11.35,36.79,55.8347917730994,-108.40387034522
Estevan,2026-05-01 19:00:00+00:00,3,3,3,0,5.45,5.45,5.45,2.97,2.97,2.97,46.31,46.31,46.31,11.65,243.53,16.89,20.96,49.1323647672702,-102.985002018981
Prince Albert,2026-05-01 19:00:00+00:00,3,3,3,0,13.05,13.05,13.05,3.1,3.1,3.1,38.81,38.81,38.81,7.25,114.2,13.86,42.07,53.2019378757967,-105.751586774025
Regina,2026-05-01 19:00:00+00:00,3,3,3,0,4.46,4.46,4.46,3.03,3.03,3.03,47.41,47.41,47.41,13.4,236.57,17.97,18.68,50.4502077461615,-104.617125744561
Saskatoon,2026-05-01 19:00:00+00:00,3,3,3,0,6.79,6.79,6.79,2.51,2.51,2.51,50.31,50.31,50.31,12.64,211.91,21.08,18.68,52.1361376913645,-106.662942708646
Swift Current,2026-05-01 19:00:00+00:00,3,3,3,0,4.12,4.12,4.12,2.4,2.4,2.4,51.94,51.94,51.94,7.8,217.82,20.06,16.22,50.2858504122844,-107.816680514048
