station,datetime,AQHI_0,AQHI_1,AQHI_2,AQHI_trend,PM25_0,PM25_1,PM25_2,NO2_0,NO2_1,NO2_2,O3_0,O3_1,O3_2,WS,WD,TEMP,RH,lat,lon
Buffalo Narrows,2026-05-02 22:00:00+00:00,3,3,3,0,2.57,2.57,2.57,0.37,0.37,0.37,48.24,48.24,48.24,7.7,310.74,13.88,29.05,55.8347917730994,-108.40387034522
Estevan,2026-05-02 22:00:00+00:00,3,3,3,0,4.68,4.68,4.68,1.24,1.24,1.24,47.23,47.23,47.23,18.85,330.09,17.92,27.77,49.1323647672702,-102.985002018981
Prince Albert,2026-05-02 22:00:00+00:00,3,3,3,0,4.77,4.77,4.77,0.91,0.91,0.91,42.2,42.2,42.2,9.28,297.7,17.32,26.89,53.2019378757967,-105.751586774025
Regina,2026-05-02 22:00:00+00:00,2,2,2,0,2.9,2.9,2.9,1.14,1.14,1.14,39.95,39.95,39.95,17.28,333.43,16.96,23.84,50.4502077461615,-104.617125744561
Saskatoon,2026-05-02 22:00:00+00:00,3,3,3,0,4.04,4.04,4.04,1.74,1.74,1.74,43.9,43.9,43.9,13.91,298.93,19.57,20.73,52.1361376913645,-106.662942708646
Swift Current,2026-05-02 22:00:00+00:00,3,3,3,0,3.34,3.34,3.34,3.14,3.14,3.14,45.13,45.13,45.13,12.0,293.9,17.94,25.19,50.2858504122844,-107.816680514048
