station,datetime,AQHI_0,AQHI_1,AQHI_2,AQHI_trend,PM25_0,PM25_1,PM25_2,NO2_0,NO2_1,NO2_2,O3_0,O3_1,O3_2,WS,WD,TEMP,RH,lat,lon
Buffalo Narrows,2026-04-30 19:00:00+00:00,3,3,3,0,3.04,3.04,3.04,0.67,0.67,0.67,52.67,52.67,52.67,6.69,328.85,12.88,28.43,55.8347917730994,-108.40387034522
Estevan,2026-04-30 19:00:00+00:00,2,2,2,0,3.54,3.54,3.54,2.28,2.28,2.28,37.91,37.91,37.91,9.77,327.7,7.88,34.42,49.1323647672702,-102.985002018981
Prince Albert,2026-04-30 19:00:00+00:00,3,3,3,0,6.77,6.77,6.77,2.57,2.57,2.57,45.64,45.64,45.64,9.52,232.12,13.29,31.35,53.2019378757967,-105.751586774025
Regina,2026-04-30 19:00:00+00:00,3,3,3,0,4.91,4.91,4.91,2.23,2.23,2.23,41.82,41.82,41.82,10.48,311.24,10.92,29.02,50.4502077461615,-104.617125744561
Saskatoon,2026-04-30 19:00:00+00:00,3,3,3,0,4.41,4.41,4.41,2.54,2.54,2.54,44.79,44.79,44.79,9.51,273.2,14.74,23.29,52.1361376913645,-106.662942708646
Swift Current,2026-04-30 19:00:00+00:00,3,3,3,0,4.01,4.01,4.01,3.72,3.72,3.72,47.69,47.69,47.69,6.85,293.29,12.78,23.37,50.2858504122844,-107.816680514048
