station,datetime,AQHI_0,AQHI_1,AQHI_2,AQHI_trend,PM25_0,PM25_1,PM25_2,NO2_0,NO2_1,NO2_2,O3_0,O3_1,O3_2,WS,WD,TEMP,RH,lat,lon
Buffalo Narrows,2026-05-01 15:00:00+00:00,2,2,2,0,3.03,3.03,3.03,0.29,0.29,0.29,43.5,43.5,43.5,7.45,165.93,7.26,44.27,55.8347917730994,-108.40387034522
Estevan,2026-05-01 15:00:00+00:00,2,2,2,0,9.69,9.69,9.69,7.69,7.69,7.69,24.79,24.79,24.79,5.47,237.25,7.08,43.57,49.1323647672702,-102.985002018981
Prince Albert,2026-05-01 15:00:00+00:00,2,2,2,0,14.93,14.93,14.93,4.68,4.68,4.68,26.74,26.74,26.74,5.11,89.54,5.81,58.71,53.2019378757967,-105.751586774025
Regina,2026-05-01 15:00:00+00:00,2,2,2,0,7.08,7.08,7.08,5.07,5.07,5.07,32.47,32.47,32.47,14.24,254.13,9.84,35.53,50.4502077461615,-104.617125744561
Saskatoon,2026-05-01 15:00:00+00:00,2,2,2,0,5.57,5.57,5.57,5.36,5.36,5.36,30.0,30.0,30.0,9.02,187.45,7.67,42.19,52.1361376913645,-106.662942708646
Swift Current,2026-05-01 15:00:00+00:00,2,2,2,0,4.81,4.81,4.81,3.66,3.66,3.66,34.66,34.66,34.66,6.9,195.28,10.3,41.15,50.2858504122844,-107.816680514048
