station,datetime,AQHI_0,AQHI_1,AQHI_2,AQHI_trend,PM25_0,PM25_1,PM25_2,NO2_0,NO2_1,NO2_2,O3_0,O3_1,O3_2,WS,WD,TEMP,RH,lat,lon
Buffalo Narrows,2026-05-02 08:00:00+00:00,2,2,2,0,1.03,1.03,1.03,0.23,0.23,0.23,35.13,35.13,35.13,2.27,316.52,2.26,61.27,55.8347917730994,-108.40387034522
Estevan,2026-05-02 08:00:00+00:00,2,2,2,0,5.92,5.92,5.92,5.49,5.49,5.49,33.61,33.61,33.61,5.91,205.5,10.73,33.4,49.1323647672702,-102.985002018981
Prince Albert,2026-05-02 08:00:00+00:00,3,3,3,0,4.69,4.69,4.69,1.13,1.13,1.13,43.01,43.01,43.01,6.86,318.07,7.03,57.07,53.2019378757967,-105.751586774025
Regina,2026-05-02 08:00:00+00:00,2,2,2,0,5.98,5.98,5.98,3.75,3.75,3.75,33.65,33.65,33.65,9.56,333.07,13.98,32.72,50.4502077461615,-104.617125744561
Saskatoon,2026-05-02 08:00:00+00:00,3,3,3,0,4.87,4.87,4.87,2.22,2.22,2.22,42.58,42.58,42.58,13.84,348.36,10.65,47.18,52.1361376913645,-106.662942708646
Swift Current,2026-05-02 08:00:00+00:00,2,2,2,0,4.36,4.36,4.36,4.11,4.11,4.11,32.18,32.18,32.18,6.34,332.62,11.52,49.2,50.2858504122844,-107.816680514048
