station,datetime,AQHI_0,AQHI_1,AQHI_2,AQHI_trend,PM25_0,PM25_1,PM25_2,NO2_0,NO2_1,NO2_2,O3_0,O3_1,O3_2,WS,WD,TEMP,RH,lat,lon
Buffalo Narrows,2026-04-27 17:00:00+00:00,2,2,2,0,0.57,0.57,0.57,0.39,0.39,0.39,34.24,34.24,34.24,5.56,25.75,-4.61,69.53,55.8347917730994,-108.40387034522
Estevan,2026-04-27 17:00:00+00:00,2,2,2,0,2.94,2.94,2.94,3.51,3.51,3.51,30.47,30.47,30.47,9.19,314.5,1.21,45.48,49.1323647672702,-102.985002018981
Prince Albert,2026-04-27 17:00:00+00:00,2,2,2,0,3.43,3.43,3.43,3.6,3.6,3.6,31.81,31.81,31.81,3.88,288.4,-0.08,64.3,53.2019378757967,-105.751586774025
Regina,2026-04-27 17:00:00+00:00,2,2,2,0,3.76,3.76,3.76,2.47,2.47,2.47,31.29,31.29,31.29,11.21,324.09,-0.03,48.27,50.4502077461615,-104.617125744561
Saskatoon,2026-04-27 17:00:00+00:00,2,2,2,0,4.15,4.15,4.15,3.04,3.04,3.04,31.64,31.64,31.64,7.8,256.33,-0.44,55.84,52.1361376913645,-106.662942708646
Swift Current,2026-04-27 17:00:00+00:00,3,3,3,0,3.11,3.11,3.11,11.92,11.92,11.92,30.65,30.65,30.65,5.7,221.77,-2.38,55.28,50.2858504122844,-107.816680514048
