station,datetime,AQHI_0,AQHI_1,AQHI_2,AQHI_trend,PM25_0,PM25_1,PM25_2,NO2_0,NO2_1,NO2_2,O3_0,O3_1,O3_2,WS,WD,TEMP,RH,lat,lon
Buffalo Narrows,2026-05-01 07:00:00+00:00,2,2,2,0,3.39,3.39,3.39,1.54,1.54,1.54,33.04,33.04,33.04,3.41,118.22,2.94,57.06,55.8347917730994,-108.40387034522
Estevan,2026-05-01 07:00:00+00:00,2,2,2,0,6.99,6.99,6.99,9.78,9.78,9.78,15.18,15.18,15.18,2.68,258.21,2.45,60.27,49.1323647672702,-102.985002018981
Prince Albert,2026-05-01 07:00:00+00:00,4,4,4,0,23.54,23.54,23.54,21.53,21.53,21.53,13.7,13.7,13.7,1.9,62.57,6.4,54.29,53.2019378757967,-105.751586774025
Regina,2026-05-01 07:00:00+00:00,3,3,3,0,6.35,6.35,6.35,11.57,11.57,11.57,26.79,26.79,26.79,7.53,217.5,7.12,41.39,50.4502077461615,-104.617125744561
Saskatoon,2026-05-01 07:00:00+00:00,3,3,3,0,3.87,3.87,3.87,4.82,4.82,4.82,39.25,39.25,39.25,8.56,199.09,9.23,36.72,52.1361376913645,-106.662942708646
Swift Current,2026-05-01 07:00:00+00:00,2,2,2,0,3.66,3.66,3.66,2.68,2.68,2.68,38.48,38.48,38.48,5.36,197.07,6.71,42.76,50.2858504122844,-107.816680514048
