station,datetime,AQHI_0,AQHI_1,AQHI_2,AQHI_trend,PM25_0,PM25_1,PM25_2,NO2_0,NO2_1,NO2_2,O3_0,O3_1,O3_2,WS,WD,TEMP,RH,lat,lon
Buffalo Narrows,2026-04-28 19:00:00+00:00,2,2,2,0,3.04,3.04,3.04,0.55,0.55,0.55,35.59,35.59,35.59,7.8,355.28,2.54,54.89,55.8347917730994,-108.40387034522
Estevan,2026-04-28 19:00:00+00:00,2,2,2,0,5.4,5.4,5.4,3.49,3.49,3.49,32.62,32.62,32.62,6.7,330.98,4.91,39.01,49.1323647672702,-102.985002018981
Prince Albert,2026-04-28 19:00:00+00:00,3,3,3,0,6.0,6.0,6.0,2.68,2.68,2.68,40.84,40.84,40.84,4.42,257.98,5.48,43.07,53.2019378757967,-105.751586774025
Regina,2026-04-28 19:00:00+00:00,3,3,3,0,7.12,7.12,7.12,9.66,9.66,9.66,29.45,29.45,29.45,7.31,99.0,3.92,41.03,50.4502077461615,-104.617125744561
Saskatoon,2026-04-28 19:00:00+00:00,2,2,2,0,5.05,5.05,5.05,3.3,3.3,3.3,35.69,35.69,35.69,5.6,357.12,5.55,37.29,52.1361376913645,-106.662942708646
Swift Current,2026-04-28 19:00:00+00:00,2,2,2,0,4.11,4.11,4.11,3.49,3.49,3.49,34.44,34.44,34.44,6.82,119.27,6.86,43.23,50.2858504122844,-107.816680514048
