station,datetime,AQHI_0,AQHI_1,AQHI_2,AQHI_trend,PM25_0,PM25_1,PM25_2,NO2_0,NO2_1,NO2_2,O3_0,O3_1,O3_2,WS,WD,TEMP,RH,lat,lon
Buffalo Narrows,2026-04-28 21:00:00+00:00,2,2,2,0,2.83,2.83,2.83,0.37,0.37,0.37,36.85,36.85,36.85,9.84,346.4,3.21,53.43,55.8347917730994,-108.40387034522
Estevan,2026-04-28 21:00:00+00:00,2,2,2,0,5.1,5.1,5.1,3.17,3.17,3.17,34.96,34.96,34.96,6.43,284.95,7.14,33.17,49.1323647672702,-102.985002018981
Prince Albert,2026-04-28 21:00:00+00:00,3,3,3,0,6.77,6.77,6.77,2.47,2.47,2.47,42.78,42.78,42.78,5.74,325.77,6.15,39.25,53.2019378757967,-105.751586774025
Regina,2026-04-28 21:00:00+00:00,3,3,3,0,10.42,10.42,10.42,9.0,9.0,9.0,36.02,36.02,36.02,9.26,27.81,5.28,38.47,50.4502077461615,-104.617125744561
Saskatoon,2026-04-28 21:00:00+00:00,2,2,2,0,3.84,3.84,3.84,2.2,2.2,2.2,35.91,35.91,35.91,6.37,328.48,6.72,31.17,52.1361376913645,-106.662942708646
Swift Current,2026-04-28 21:00:00+00:00,2,2,2,0,3.87,3.87,3.87,3.25,3.25,3.25,36.06,36.06,36.06,4.76,317.41,9.25,36.93,50.2858504122844,-107.816680514048
