station,datetime,AQHI_0,AQHI_1,AQHI_2,AQHI_trend,PM25_0,PM25_1,PM25_2,NO2_0,NO2_1,NO2_2,O3_0,O3_1,O3_2,WS,WD,TEMP,RH,lat,lon
Buffalo Narrows,2026-04-25 10:00:00+00:00,2,2,2,0,1.39,1.39,1.39,0.07,0.07,0.07,32.66,32.66,32.66,16.67,348.25,-6.87,81.36,55.8347917730994,-108.40387034522
Estevan,2026-04-25 10:00:00+00:00,2,2,2,0,2.63,2.63,2.63,1.96,1.96,1.96,31.19,31.19,31.19,13.34,222.59,-6.86,70.47,49.1323647672702,-102.985002018981
Prince Albert,2026-04-25 10:00:00+00:00,2,2,2,0,1.2,1.2,1.2,1.49,1.49,1.49,35.1,35.1,35.1,5.3,342.08,-3.19,76.49,53.2019378757967,-105.751586774025
Regina,2026-04-25 10:00:00+00:00,2,2,2,0,2.01,2.01,2.01,3.95,3.95,3.95,28.96,28.96,28.96,13.51,263.64,-7.13,73.95,50.4502077461615,-104.617125744561
Saskatoon,2026-04-25 10:00:00+00:00,2,2,2,0,0.59,0.59,0.59,2.64,2.64,2.64,32.11,32.11,32.11,14.6,334.22,-5.28,83.19,52.1361376913645,-106.662942708646
Swift Current,2026-04-25 10:00:00+00:00,2,2,2,0,1.48,1.48,1.48,1.83,1.83,1.83,35.34,35.34,35.34,24.3,289.12,-8.15,93.69,50.2858504122844,-107.816680514048
