station,datetime,AQHI_0,AQHI_1,AQHI_2,AQHI_trend,PM25_0,PM25_1,PM25_2,NO2_0,NO2_1,NO2_2,O3_0,O3_1,O3_2,WS,WD,TEMP,RH,lat,lon
Buffalo Narrows,2026-04-29 07:00:00+00:00,2,2,2,0,2.81,2.81,2.81,1.82,1.82,1.82,30.87,30.87,30.87,1.27,152.51,-1.87,65.81,55.8347917730994,-108.40387034522
Estevan,2026-04-29 07:00:00+00:00,2,2,2,0,4.86,4.86,4.86,4.77,4.77,4.77,20.98,20.98,20.98,6.65,38.61,-1.39,58.95,49.1323647672702,-102.985002018981
Prince Albert,2026-04-29 07:00:00+00:00,3,3,3,0,4.05,4.05,4.05,5.05,5.05,5.05,36.9,36.9,36.9,5.37,270.24,2.99,55.19,53.2019378757967,-105.751586774025
Regina,2026-04-29 07:00:00+00:00,4,4,4,0,8.03,8.03,8.03,29.63,29.63,29.63,12.88,12.88,12.88,7.34,83.57,0.45,56.43,50.4502077461615,-104.617125744561
Saskatoon,2026-04-29 07:00:00+00:00,2,2,2,0,4.84,4.84,4.84,8.53,8.53,8.53,28.34,28.34,28.34,6.33,204.0,2.09,52.45,52.1361376913645,-106.662942708646
Swift Current,2026-04-29 07:00:00+00:00,2,2,2,0,3.89,3.89,3.89,7.82,7.82,7.82,29.36,29.36,29.36,4.18,94.85,0.69,64.34,50.2858504122844,-107.816680514048
