station,datetime,AQHI_0,AQHI_1,AQHI_2,AQHI_trend,PM25_0,PM25_1,PM25_2,NO2_0,NO2_1,NO2_2,O3_0,O3_1,O3_2,WS,WD,TEMP,RH,lat,lon
Buffalo Narrows,2026-04-29 08:00:00+00:00,2,2,2,0,2.91,2.91,2.91,0.76,0.76,0.76,30.89,30.89,30.89,1.39,173.53,-2.4,66.6,55.8347917730994,-108.40387034522
Estevan,2026-04-29 08:00:00+00:00,2,2,2,0,5.16,5.16,5.16,6.12,6.12,6.12,19.93,19.93,19.93,6.23,31.11,-1.73,59.87,49.1323647672702,-102.985002018981
Prince Albert,2026-04-29 08:00:00+00:00,2,2,2,0,3.99,3.99,3.99,4.31,4.31,4.31,37.26,37.26,37.26,5.22,273.1,2.78,55.15,53.2019378757967,-105.751586774025
Regina,2026-04-29 08:00:00+00:00,3,3,3,0,6.95,6.95,6.95,27.38,27.38,27.38,13.83,13.83,13.83,5.83,97.34,0.37,55.6,50.4502077461615,-104.617125744561
Saskatoon,2026-04-29 08:00:00+00:00,2,2,2,0,3.83,3.83,3.83,5.31,5.31,5.31,29.29,29.29,29.29,8.11,199.22,1.92,56.19,52.1361376913645,-106.662942708646
Swift Current,2026-04-29 08:00:00+00:00,2,2,2,0,3.99,3.99,3.99,8.21,8.21,8.21,28.69,28.69,28.69,4.22,100.99,0.15,64.32,50.2858504122844,-107.816680514048
