station,datetime,AQHI_0,AQHI_1,AQHI_2,AQHI_trend,PM25_0,PM25_1,PM25_2,NO2_0,NO2_1,NO2_2,O3_0,O3_1,O3_2,WS,WD,TEMP,RH,lat,lon
Buffalo Narrows,2026-04-29 14:00:00+00:00,2,2,2,0,3.25,3.25,3.25,0.48,0.48,0.48,28.97,28.97,28.97,3.09,208.82,-2.58,67.83,55.8347917730994,-108.40387034522
Estevan,2026-04-29 14:00:00+00:00,2,2,2,0,5.42,5.42,5.42,5.87,5.87,5.87,28.21,28.21,28.21,8.12,351.24,0.13,56.08,49.1323647672702,-102.985002018981
Prince Albert,2026-04-29 14:00:00+00:00,3,3,3,0,6.0,6.0,6.0,3.52,3.52,3.52,36.89,36.89,36.89,5.05,289.16,3.46,48.88,53.2019378757967,-105.751586774025
Regina,2026-04-29 14:00:00+00:00,2,2,2,0,7.62,7.62,7.62,13.1,13.1,13.1,17.08,17.08,17.08,4.46,309.62,-0.77,61.5,50.4502077461615,-104.617125744561
Saskatoon,2026-04-29 14:00:00+00:00,2,2,2,0,7.37,7.37,7.37,13.09,13.09,13.09,18.22,18.22,18.22,9.3,225.79,1.87,57.19,52.1361376913645,-106.662942708646
Swift Current,2026-04-29 14:00:00+00:00,2,2,2,0,6.52,6.52,6.52,5.59,5.59,5.59,18.38,18.38,18.38,3.97,173.36,-2.36,82.01,50.2858504122844,-107.816680514048
