station,datetime,AQHI_0,AQHI_1,AQHI_2,AQHI_trend,PM25_0,PM25_1,PM25_2,NO2_0,NO2_1,NO2_2,O3_0,O3_1,O3_2,WS,WD,TEMP,RH,lat,lon
Buffalo Narrows,2026-05-02 10:00:00+00:00,2,2,2,0,1.01,1.01,1.01,0.43,0.43,0.43,29.93,29.93,29.93,3.26,214.1,-0.61,69.96,55.8347917730994,-108.40387034522
Estevan,2026-05-02 10:00:00+00:00,4,4,4,0,8.91,8.91,8.91,38.02,38.02,38.02,2.44,2.44,2.44,10.95,219.18,10.18,33.47,49.1323647672702,-102.985002018981
Prince Albert,2026-05-02 10:00:00+00:00,2,2,2,0,4.87,4.87,4.87,2.43,2.43,2.43,38.77,38.77,38.77,3.24,289.92,5.31,64.45,53.2019378757967,-105.751586774025
Regina,2026-05-02 10:00:00+00:00,2,2,2,0,5.39,5.39,5.39,3.2,3.2,3.2,27.83,27.83,27.83,10.19,319.64,11.63,45.28,50.4502077461615,-104.617125744561
Saskatoon,2026-05-02 10:00:00+00:00,3,3,3,0,4.35,4.35,4.35,3.2,3.2,3.2,43.16,43.16,43.16,11.54,351.01,9.53,54.69,52.1361376913645,-106.662942708646
Swift Current,2026-05-02 10:00:00+00:00,2,2,2,0,6.02,6.02,6.02,11.85,11.85,11.85,13.56,13.56,13.56,2.78,195.16,7.04,67.51,50.2858504122844,-107.816680514048
