station,datetime,AQHI_0,AQHI_1,AQHI_2,AQHI_trend,PM25_0,PM25_1,PM25_2,NO2_0,NO2_1,NO2_2,O3_0,O3_1,O3_2,WS,WD,TEMP,RH,lat,lon
Buffalo Narrows,2026-04-27 23:00:00+00:00,2,2,2,0,0.42,0.42,0.42,0.18,0.18,0.18,34.8,34.8,34.8,9.8,357.13,-1.39,58.02,55.8347917730994,-108.40387034522
Estevan,2026-04-27 23:00:00+00:00,2,2,2,0,3.75,3.75,3.75,2.25,2.25,2.25,34.64,34.64,34.64,11.28,313.02,5.6,33.43,49.1323647672702,-102.985002018981
Prince Albert,2026-04-27 23:00:00+00:00,3,3,3,0,4.45,4.45,4.45,3.27,3.27,3.27,38.9,38.9,38.9,8.16,262.22,2.48,48.79,53.2019378757967,-105.751586774025
Regina,2026-04-27 23:00:00+00:00,2,2,2,0,4.27,4.27,4.27,1.99,1.99,1.99,33.0,33.0,33.0,11.11,331.34,1.26,43.27,50.4502077461615,-104.617125744561
Saskatoon,2026-04-27 23:00:00+00:00,2,2,2,0,4.2,4.2,4.2,2.61,2.61,2.61,36.68,36.68,36.68,7.74,259.41,2.64,45.03,52.1361376913645,-106.662942708646
Swift Current,2026-04-27 23:00:00+00:00,2,2,2,0,3.18,3.18,3.18,2.37,2.37,2.37,35.06,35.06,35.06,5.05,245.27,1.43,46.03,50.2858504122844,-107.816680514048
