station,datetime,AQHI_0,AQHI_1,AQHI_2,AQHI_trend,PM25_0,PM25_1,PM25_2,NO2_0,NO2_1,NO2_2,O3_0,O3_1,O3_2,WS,WD,TEMP,RH,lat,lon
Buffalo Narrows,2026-04-25 21:00:00+00:00,2,2,2,0,0.34,0.34,0.34,0.28,0.28,0.28,34.8,34.8,34.8,18.6,340.22,-3.09,73.91,55.8347917730994,-108.40387034522
Estevan,2026-04-25 21:00:00+00:00,2,2,2,0,3.2,3.2,3.2,1.34,1.34,1.34,35.35,35.35,35.35,27.69,245.2,-0.99,47.92,49.1323647672702,-102.985002018981
Prince Albert,2026-04-25 21:00:00+00:00,2,2,2,0,0.69,0.69,0.69,1.52,1.52,1.52,34.0,34.0,34.0,6.38,283.35,1.27,60.92,53.2019378757967,-105.751586774025
Regina,2026-04-25 21:00:00+00:00,2,2,2,0,1.65,1.65,1.65,1.58,1.58,1.58,30.73,30.73,30.73,23.05,278.29,-1.55,64.04,50.4502077461615,-104.617125744561
Saskatoon,2026-04-25 21:00:00+00:00,2,2,2,0,0.85,0.85,0.85,2.05,2.05,2.05,33.13,33.13,33.13,13.78,291.5,-1.29,57.64,52.1361376913645,-106.662942708646
Swift Current,2026-04-25 21:00:00+00:00,2,2,2,0,2.05,2.05,2.05,2.24,2.24,2.24,38.26,38.26,38.26,25.53,290.1,-4.61,76.42,50.2858504122844,-107.816680514048
