station,datetime,AQHI_0,AQHI_1,AQHI_2,AQHI_trend,PM25_0,PM25_1,PM25_2,NO2_0,NO2_1,NO2_2,O3_0,O3_1,O3_2,WS,WD,TEMP,RH,lat,lon
Buffalo Narrows,2026-04-28 10:00:00+00:00,2,2,2,0,0.92,0.92,0.92,0.04,0.04,0.04,32.23,32.23,32.23,2.69,53.47,-2.24,67.5,55.8347917730994,-108.40387034522
Estevan,2026-04-28 10:00:00+00:00,1,1,1,0,4.69,4.69,4.69,8.47,8.47,8.47,6.95,6.95,6.95,4.15,263.44,-5.95,72.85,49.1323647672702,-102.985002018981
Prince Albert,2026-04-28 10:00:00+00:00,3,3,3,0,4.87,4.87,4.87,9.45,9.45,9.45,28.93,28.93,28.93,1.68,301.51,-1.22,65.1,53.2019378757967,-105.751586774025
Regina,2026-04-28 10:00:00+00:00,2,2,2,0,4.63,4.63,4.63,17.05,17.05,17.05,11.77,11.77,11.77,4.46,228.05,-3.52,61.85,50.4502077461615,-104.617125744561
Saskatoon,2026-04-28 10:00:00+00:00,2,2,2,0,4.51,4.51,4.51,11.8,11.8,11.8,22.28,22.28,22.28,4.28,138.83,-2.0,62.95,52.1361376913645,-106.662942708646
Swift Current,2026-04-28 10:00:00+00:00,2,2,2,0,3.27,3.27,3.27,3.41,3.41,3.41,24.79,24.79,24.79,2.66,193.41,-4.16,76.78,50.2858504122844,-107.816680514048
