station,datetime,AQHI_0,AQHI_1,AQHI_2,AQHI_trend,PM25_0,PM25_1,PM25_2,NO2_0,NO2_1,NO2_2,O3_0,O3_1,O3_2,WS,WD,TEMP,RH,lat,lon
Buffalo Narrows,2026-04-25 12:00:00+00:00,2,2,2,0,0.98,0.98,0.98,0.05,0.05,0.05,32.48,32.48,32.48,14.94,343.71,-7.0,81.48,55.8347917730994,-108.40387034522
Estevan,2026-04-25 12:00:00+00:00,2,2,2,0,2.42,2.42,2.42,1.57,1.57,1.57,30.92,30.92,30.92,19.1,234.87,-6.95,70.93,49.1323647672702,-102.985002018981
Prince Albert,2026-04-25 12:00:00+00:00,2,2,2,0,1.62,1.62,1.62,2.97,2.97,2.97,32.31,32.31,32.31,4.83,337.57,-3.33,79.34,53.2019378757967,-105.751586774025
Regina,2026-04-25 12:00:00+00:00,2,2,2,0,2.63,2.63,2.63,4.22,4.22,4.22,27.24,27.24,27.24,13.51,243.89,-7.43,74.24,50.4502077461615,-104.617125744561
Saskatoon,2026-04-25 12:00:00+00:00,2,2,2,0,0.63,0.63,0.63,3.1,3.1,3.1,31.64,31.64,31.64,18.61,346.79,-5.26,79.41,52.1361376913645,-106.662942708646
Swift Current,2026-04-25 12:00:00+00:00,2,2,2,0,1.63,1.63,1.63,3.11,3.11,3.11,35.83,35.83,35.83,25.74,292.95,-7.5,93.51,50.2858504122844,-107.816680514048
