station,datetime,AQHI_0,AQHI_1,AQHI_2,AQHI_trend,PM25_0,PM25_1,PM25_2,NO2_0,NO2_1,NO2_2,O3_0,O3_1,O3_2,WS,WD,TEMP,RH,lat,lon
Buffalo Narrows,2026-04-26 23:00:00+00:00,2,2,2,0,1.05,1.05,1.05,0.23,0.23,0.23,34.29,34.29,34.29,8.73,311.39,-1.63,70.52,55.8347917730994,-108.40387034522
Estevan,2026-04-26 23:00:00+00:00,3,3,3,0,7.07,7.07,7.07,7.39,7.39,7.39,33.81,33.81,33.81,4.65,353.11,3.18,50.85,49.1323647672702,-102.985002018981
Prince Albert,2026-04-26 23:00:00+00:00,2,2,2,0,1.35,1.35,1.35,1.09,1.09,1.09,38.08,38.08,38.08,8.72,307.16,1.67,51.9,53.2019378757967,-105.751586774025
Regina,2026-04-26 23:00:00+00:00,2,2,2,0,4.05,4.05,4.05,1.94,1.94,1.94,32.88,32.88,32.88,12.67,300.67,0.05,49.55,50.4502077461615,-104.617125744561
Saskatoon,2026-04-26 23:00:00+00:00,2,2,2,0,1.45,1.45,1.45,1.39,1.39,1.39,33.88,33.88,33.88,12.74,283.27,0.66,48.47,52.1361376913645,-106.662942708646
Swift Current,2026-04-26 23:00:00+00:00,2,2,2,0,3.6,3.6,3.6,3.25,3.25,3.25,36.73,36.73,36.73,13.85,298.82,-2.76,63.01,50.2858504122844,-107.816680514048
