station,datetime,AQHI_0,AQHI_1,AQHI_2,AQHI_trend,PM25_0,PM25_1,PM25_2,NO2_0,NO2_1,NO2_2,O3_0,O3_1,O3_2,WS,WD,TEMP,RH,lat,lon
Buffalo Narrows,2026-04-26 18:00:00+00:00,2,2,2,0,1.58,1.58,1.58,0.3,0.3,0.3,34.38,34.38,34.38,13.83,351.81,-4.51,73.47,55.8347917730994,-108.40387034522
Estevan,2026-04-26 18:00:00+00:00,2,2,2,0,3.3,3.3,3.3,3.06,3.06,3.06,38.07,38.07,38.07,8.31,273.64,2.67,39.6,49.1323647672702,-102.985002018981
Prince Albert,2026-04-26 18:00:00+00:00,2,2,2,0,2.25,2.25,2.25,1.94,1.94,1.94,37.24,37.24,37.24,3.5,304.66,-0.44,67.19,53.2019378757967,-105.751586774025
Regina,2026-04-26 18:00:00+00:00,2,2,2,0,5.09,5.09,5.09,2.19,2.19,2.19,33.12,33.12,33.12,15.58,265.05,-1.48,59.68,50.4502077461615,-104.617125744561
Saskatoon,2026-04-26 18:00:00+00:00,2,2,2,0,0.66,0.66,0.66,1.62,1.62,1.62,31.83,31.83,31.83,12.79,286.83,-0.92,60.52,52.1361376913645,-106.662942708646
Swift Current,2026-04-26 18:00:00+00:00,2,2,2,0,3.24,3.24,3.24,3.45,3.45,3.45,36.13,36.13,36.13,12.84,290.43,-4.22,73.51,50.2858504122844,-107.816680514048
