station,datetime,AQHI_0,AQHI_1,AQHI_2,AQHI_trend,PM25_0,PM25_1,PM25_2,NO2_0,NO2_1,NO2_2,O3_0,O3_1,O3_2,WS,WD,TEMP,RH,lat,lon
Buffalo Narrows,2026-04-26 06:00:00+00:00,2,2,2,0,0.63,0.63,0.63,0.06,0.06,0.06,31.87,31.87,31.87,13.04,343.88,-5.66,81.01,55.8347917730994,-108.40387034522
Estevan,2026-04-26 06:00:00+00:00,2,2,2,0,2.85,2.85,2.85,5.69,5.69,5.69,20.79,20.79,20.79,4.04,254.17,-3.85,61.8,49.1323647672702,-102.985002018981
Prince Albert,2026-04-26 06:00:00+00:00,2,2,2,0,1.98,1.98,1.98,2.32,2.32,2.32,34.71,34.71,34.71,3.55,345.67,-2.55,81.83,53.2019378757967,-105.751586774025
Regina,2026-04-26 06:00:00+00:00,2,2,2,0,3.17,3.17,3.17,4.76,4.76,4.76,24.57,24.57,24.57,10.67,254.86,-2.46,68.71,50.4502077461615,-104.617125744561
Saskatoon,2026-04-26 06:00:00+00:00,2,2,2,0,0.77,0.77,0.77,4.2,4.2,4.2,28.85,28.85,28.85,7.61,255.21,-2.5,74.75,52.1361376913645,-106.662942708646
Swift Current,2026-04-26 06:00:00+00:00,3,3,3,0,2.94,2.94,2.94,12.54,12.54,12.54,26.52,26.52,26.52,8.06,257.86,-5.47,93.47,50.2858504122844,-107.816680514048
