station,datetime,AQHI_0,AQHI_1,AQHI_2,AQHI_trend,PM25_0,PM25_1,PM25_2,NO2_0,NO2_1,NO2_2,O3_0,O3_1,O3_2,WS,WD,TEMP,RH,lat,lon
Buffalo Narrows,2026-04-29 19:00:00+00:00,2,2,2,0,2.81,2.81,2.81,0.56,0.56,0.56,43.62,43.62,43.62,4.91,26.78,5.89,37.58,55.8347917730994,-108.40387034522
Estevan,2026-04-29 19:00:00+00:00,2,2,2,0,4.19,4.19,4.19,2.92,2.92,2.92,38.14,38.14,38.14,11.07,340.55,6.17,34.44,49.1323647672702,-102.985002018981
Prince Albert,2026-04-29 19:00:00+00:00,2,2,2,0,5.93,5.93,5.93,1.22,1.22,1.22,39.91,39.91,39.91,6.99,346.96,6.94,36.16,53.2019378757967,-105.751586774025
Regina,2026-04-29 19:00:00+00:00,2,2,2,0,3.9,3.9,3.9,1.96,1.96,1.96,40.42,40.42,40.42,13.35,299.56,8.36,31.65,50.4502077461615,-104.617125744561
Saskatoon,2026-04-29 19:00:00+00:00,3,3,3,0,5.74,5.74,5.74,2.46,2.46,2.46,41.65,41.65,41.65,15.86,330.99,10.81,33.82,52.1361376913645,-106.662942708646
Swift Current,2026-04-29 19:00:00+00:00,3,3,3,0,4.94,4.94,4.94,4.51,4.51,4.51,38.74,38.74,38.74,8.82,324.49,9.18,33.48,50.2858504122844,-107.816680514048
