station,datetime,AQHI_0,AQHI_1,AQHI_2,AQHI_trend,PM25_0,PM25_1,PM25_2,NO2_0,NO2_1,NO2_2,O3_0,O3_1,O3_2,WS,WD,TEMP,RH,lat,lon
Buffalo Narrows,2026-04-24 08:00:00+00:00,2,2,2,0,1.78,1.78,1.78,0.09,0.09,0.09,41.21,41.21,41.21,23.28,344.29,-6.35,81.43,55.8347917730994,-108.40387034522
Estevan,2026-04-24 08:00:00+00:00,2,2,2,0,1.79,1.79,1.79,1.89,1.89,1.89,28.51,28.51,28.51,21.36,247.61,-0.18,63.86,49.1323647672702,-102.985002018981
Prince Albert,2026-04-24 08:00:00+00:00,2,2,2,0,1.31,1.31,1.31,1.04,1.04,1.04,39.4,39.4,39.4,8.92,315.95,-5.19,76.91,53.2019378757967,-105.751586774025
Regina,2026-04-24 08:00:00+00:00,2,2,2,0,1.08,1.08,1.08,2.15,2.15,2.15,30.86,30.86,30.86,16.26,287.64,-2.96,64.23,50.4502077461615,-104.617125744561
Saskatoon,2026-04-24 08:00:00+00:00,2,2,2,0,1.24,1.24,1.24,1.61,1.61,1.61,37.63,37.63,37.63,14.14,303.86,-4.2,68.34,52.1361376913645,-106.662942708646
Swift Current,2026-04-24 08:00:00+00:00,2,2,2,0,0.72,0.72,0.72,1.36,1.36,1.36,41.66,41.66,41.66,27.37,295.38,-5.3,93.15,50.2858504122844,-107.816680514048
